OBJECTID,SITE_NAME,GAZ_NAME,GFE_ID,Y_LAT,X_LONG,GFE_TYPE,WS_CDE_20K,WS_CDE_50K,CU_NAME,FULL_CU_IN,SP_QUAL,CU_TYPE,POP_ID,FAZ_ACRO,MAZ_ACRO,JAZ_ACRO
1,ALMOND LAGOON CREEK,,2292,49.71166179,-126.538355,Stream,930-550956-000000-000000-000000-000000-000000-000000-000000-000000-000000-000000-000000-000000-000000-000000-000000-000000-000000-000000-000000,930-553400-00000-00000-0000-0000-000-000-000-000-000-000,SOUTHWEST VANCOUVER ISLAND,CM-10,CM,Current,45111,WVI,WVI,WVI+WVI
2,AMAI CREEK,AMAI CREEK,1410,50.02348098,-127.0772848,Stream,930-651588-000000-000000-000000-000000-000000-000000-000000-000000-000000-000000-000000-000000-000000-000000-000000-000000-000000-000000-000000,930-653300-00000-00000-0000-0000-000-000-000-000-000-000,SOUTHWEST VANCOUVER ISLAND,CM-10,CM,Current,41841,WVI,WVI,WVI+WVI
3,APPLE CREEK,APPLE CREEK,1389,49.83173399,-126.9050211,Stream,935-371895-564692-000000-000000-000000-000000-000000-000000-000000-000000-000000-000000-000000-000000-000000-000000-000000-000000-000000-000000,935-483000-57600-00000-0000-0000-000-000-000-000-000-000,SOUTHWEST VANCOUVER ISLAND,CM-10,CM,Current,41631,WVI,WVI,WVI+WVI
4,ARTLISH RIVER,ARTLISH RIVER,1413,50.1150961,-127.0875277,Stream,930-671111-000000-000000-000000-000000-000000-000000-000000-000000-000000-000000-000000-000000-000000-000000-000000-000000-000000-000000-000000,930-671100-00000-00000-0000-0000-000-000-000-000-000-000,SOUTHWEST VANCOUVER ISLAND,CM-10,CM,Current,41871,WVI,WVI,WVI+WVI
5,ATLEO RIVER,ATLEO RIVER,1336,49.36991725,-126.0583364,Stream,930-400575-000000-000000-000000-000000-000000-000000-000000-000000-000000-000000-000000-000000-000000-000000-000000-000000-000000-000000-000000,930-403700-00000-00000-0000-0000-000-000-000-000-000-000,SOUTHWEST VANCOUVER ISLAND,CM-10,CM,Current,41131,WVI,WVI,WVI+WVI
6,BANCROFT CREEK,BANCROFT CREEK,1357,49.59395227,-125.9152791,Stream,930-504218-363358-000000-000000-000000-000000-000000-000000-000000-000000-000000-000000-000000-000000-000000-000000-000000-000000-000000-000000,930-507400-39700-00000-0000-0000-000-000-000-000-000-000,SOUTHWEST VANCOUVER ISLAND,CM-10,CM,Current,41336,WVI,WVI,WVI+WVI
7,BARR CREEK,BARR CREEK,1393,49.91384681,-126.7838232,Stream,930-574813-000000-000000-000000-000000-000000-000000-000000-000000-000000-000000-000000-000000-000000-000000-000000-000000-000000-000000-000000,930-577600-00000-00000-0000-0000-000-000-000-000-000-000,SOUTHWEST VANCOUVER ISLAND,CM-10,CM,Current,41671,WVI,WVI,WVI+WVI
8,BATTLE BAY RIVER,,1429,50.1213242,-127.5867074,Stream,930-738595-000000-000000-000000-000000-000000-000000-000000-000000-000000-000000-000000-000000-000000-000000-000000-000000-000000-000000-000000,930-739000-00000-00000-0000-0000-000-000-000-000-000-000,SOUTHWEST VANCOUVER ISLAND,CM-10,CM,Current,39696,WVI,WVI,WVI+WVI
9,BAWDEN CREEK,BAWDEN CREEK,1330,49.28022039,-126.0113506,Stream,930-375321-000000-000000-000000-000000-000000-000000-000000-000000-000000-000000-000000-000000-000000-000000-000000-000000-000000-000000-000000,930-378500-00000-00000-0000-0000-000-000-000-000-000-000,SOUTHWEST VANCOUVER ISLAND,CM-10,CM,Current,52346,WVI,WVI,WVI+WVI
10,BEANO CREEK,BEANO CREEK,1382,49.60764036,-126.7535982,Stream,935-371895-042490-000000-000000-000000-000000-000000-000000-000000-000000-000000-000000-000000-000000-000000-000000-000000-000000-000000-000000,935-483000-04000-00000-0000-0000-000-000-000-000-000-000,SOUTHWEST VANCOUVER ISLAND,CM-10,CM,Current,41566,WVI,WVI,WVI+WVI
11,BEDINGFIELD BAY CREEK,,351,49.35848071,-125.9864008,Stream,930-394398-000000-000000-000000-000000-000000-000000-000000-000000-000000-000000-000000-000000-000000-000000-000000-000000-000000-000000-000000,930-397400-00000-00000-0000-0000-000-000-000-000-000-000,SOUTHWEST VANCOUVER ISLAND,CM-10,CM,Current,45612,WVI,WVI,WVI+WVI
12,BEDWELL RIVER,BEDWELL RIVER,7990630,49.38831365,-125.7596205,Stream,930-350962-000000-000000-000000-000000-000000-000000-000000-000000-000000-000000-000000-000000-000000-000000-000000-000000-000000-000000-000000,930-355300-00000-00000-0000-0000-000-000-000-000-000-000,SOUTHWEST VANCOUVER ISLAND,CM-10,CM,Current,45188,WVI,WVI,WVI+WVI
13,BEDWELL RIVER,BEDWELL RIVER,1327,49.36425733,-125.7768433,Stream,930-350962-000000-000000-000000-000000-000000-000000-000000-000000-000000-000000-000000-000000-000000-000000-000000-000000-000000-000000-000000,930-355300-00000-00000-0000-0000-000-000-000-000-000-000,SOUTHWEST VANCOUVER ISLAND,CM-10,CM,Current,52316,WVI,WVI,WVI+WVI
14,BINGO CREEK,BINGO CREEK,1395,49.96448029,-126.8155381,Stream,930-577097-083521-000000-000000-000000-000000-000000-000000-000000-000000-000000-000000-000000-000000-000000-000000-000000-000000-000000-000000,930-579900-08100-00000-0000-0000-000-000-000-000-000-000,SOUTHWEST VANCOUVER ISLAND,CM-10,CM,Current,41691,WVI,WVI,WVI+WVI
15,BLACK CREEK,BLACK CREEK,1386,49.65397281,-126.0860889,Stream,930-506811-000000-000000-000000-000000-000000-000000-000000-000000-000000-000000-000000-000000-000000-000000-000000-000000-000000-000000-000000,930-510000-00000-00000-0000-0000-000-000-000-000-000-000,SOUTHWEST VANCOUVER ISLAND,CM-10,CM,Current,41601,WVI,WVI,WVI+WVI
16,BLOWHOLE CREEK,BLOWHOLE CREEK,1378,49.82805386,-126.6757368,Stream,935-371895-765552-000000-000000-000000-000000-000000-000000-000000-000000-000000-000000-000000-000000-000000-000000-000000-000000-000000-000000,935-483000-76800-00000-0000-0000-000-000-000-000-000-000,SOUTHWEST VANCOUVER ISLAND,CM-10,CM,Current,41526,WVI,WVI,WVI+WVI
17,BRITISH CREEK,BRITISH CREEK,1423,50.05320563,-127.2878126,Stream,930-702640-000000-000000-000000-000000-000000-000000-000000-000000-000000-000000-000000-000000-000000-000000-000000-000000-000000-000000-000000,930-702700-00000-00000-0000-0000-000-000-000-000-000-000,SOUTHWEST VANCOUVER ISLAND,CM-10,CM,Current,39636,WVI,WVI,WVI+WVI
18,BRODICK CREEK,BRODICK CREEK,1390,49.84504323,-126.8993677,Stream,935-371895-585160-000000-000000-000000-000000-000000-000000-000000-000000-000000-000000-000000-000000-000000-000000-000000-000000-000000-000000,935-483000-59300-00000-0000-0000-000-000-000-000-000-000,SOUTHWEST VANCOUVER ISLAND,CM-10,CM,Current,41641,WVI,WVI,WVI+WVI
19,BROTHER CREEK,BROTHER CREEK,1324,49.1874118,-125.9139171,Stream,935-334340-467252-000000-000000-000000-000000-000000-000000-000000-000000-000000-000000-000000-000000-000000-000000-000000-000000-000000-000000,935-302000-46700-00000-0000-0000-000-000-000-000-000-000,SOUTHWEST VANCOUVER ISLAND,CM-10,CM,Current,52286,WVI,WVI,WVI+WVI
20,BULSON CREEK,BULSON CREEK,1319,49.2604581,-125.7290972,Stream,930-341740-000000-000000-000000-000000-000000-000000-000000-000000-000000-000000-000000-000000-000000-000000-000000-000000-000000-000000-000000,930-345600-00000-00000-0000-0000-000-000-000-000-000-000,SOUTHWEST VANCOUVER ISLAND,CM-10,CM,Current,52236,WVI,WVI,WVI+WVI
21,BURMAN RIVER,BURMAN RIVER,1356,49.60761042,-126.0461614,Stream,930-504218-000000-000000-000000-000000-000000-000000-000000-000000-000000-000000-000000-000000-000000-000000-000000-000000-000000-000000-000000,930-507400-00000-00000-0000-0000-000-000-000-000-000-000,SOUTHWEST VANCOUVER ISLAND,CM-10,CM,Current,41326,WVI,WVI,WVI+WVI
22,CACHALOT CREEK,CACHALOT CREEK,1408,49.99797765,-127.1648176,Stream,930-644889-000000-000000-000000-000000-000000-000000-000000-000000-000000-000000-000000-000000-000000-000000-000000-000000-000000-000000-000000,930-647000-00000-00000-0000-0000-000-000-000-000-000-000,SOUTHWEST VANCOUVER ISLAND,CM-10,CM,Current,41821,WVI,WVI,WVI+WVI
23,CAMPSITE CREEK,,2489,49.15284626,-125.6563114,Stream,930-304937-000000-000000-000000-000000-000000-000000-000000-000000-000000-000000-000000-000000-000000-000000-000000-000000-000000-000000-000000,930-309100-00000-00000-0000-0000-000-000-000-000-000-000,SOUTHWEST VANCOUVER ISLAND,CM-10,CM,Current,44571,WVI,WVI,WVI+WVI
24,CAMPUS CREEK,CAMPUS CREEK,1247,48.81378911,-124.6699556,Stream,930-073434-283356-000000-000000-000000-000000-000000-000000-000000-000000-000000-000000-000000-000000-000000-000000-000000-000000-000000-000000,930-071700-28000-00000-0000-0000-000-000-000-000-000-000,SOUTHWEST VANCOUVER ISLAND,CM-10,CM,Current,40406,WVI,WVI,WVI+WVI
25,CANOE PASS CREEK,CANOE PASS CREEK,1281,48.95771823,-125.2190425,Stream,930-201925-000000-000000-000000-000000-000000-000000-000000-000000-000000-000000-000000-000000-000000-000000-000000-000000-000000-000000-000000,930-207400-00000-00000-0000-0000-000-000-000-000-000-000,SOUTHWEST VANCOUVER ISLAND,CM-10,CM,Current,40726,WVI,WVI,WVI+WVI
26,CANTON CREEK,CANTON CREEK,1370,49.79602081,-126.4734215,Stream,930-537619-000000-000000-000000-000000-000000-000000-000000-000000-000000-000000-000000-000000-000000-000000-000000-000000-000000-000000-000000,930-539800-00000-00000-0000-0000-000-000-000-000-000-000,SOUTHWEST VANCOUVER ISLAND,CM-10,CM,Current,41446,WVI,WVI,WVI+WVI
27,CARNATION CREEK,CARNATION CREEK,1254,48.91360195,-125.0037843,Stream,930-113555-000000-000000-000000-000000-000000-000000-000000-000000-000000-000000-000000-000000-000000-000000-000000-000000-000000-000000-000000,930-112200-00000-00000-0000-0000-000-000-000-000-000-000,SOUTHWEST VANCOUVER ISLAND,CM-10,CM,Current,40476,WVI,WVI,WVI+WVI
28,CASS CREEK,CASS CREEK,1271,49.00551757,-125.0043534,Stream,930-161554-000000-000000-000000-000000-000000-000000-000000-000000-000000-000000-000000-000000-000000-000000-000000-000000-000000-000000-000000,930-159800-00000-00000-0000-0000-000-000-000-000-000-000,SOUTHWEST VANCOUVER ISLAND,CM-10,CM,Current,40626,WVI,WVI,WVI+WVI
29,CATARACT CREEK,CATARACT CREEK,1285,49.01649677,-125.2779667,Stream,930-214171-000000-000000-000000-000000-000000-000000-000000-000000-000000-000000-000000-000000-000000-000000-000000-000000-000000-000000-000000,930-220100-00000-00000-0000-0000-000-000-000-000-000-000,SOUTHWEST VANCOUVER ISLAND,CM-10,CM,Current,40766,WVI,WVI,WVI+WVI
30,CAYCUSE RIVER,CAYCUSE RIVER,1246,48.79746198,-124.6828129,Stream,930-073434-258445-000000-000000-000000-000000-000000-000000-000000-000000-000000-000000-000000-000000-000000-000000-000000-000000-000000-000000,930-071700-25700-00000-0000-0000-000-000-000-000-000-000,SOUTHWEST VANCOUVER ISLAND,CM-10,CM,Current,40396,WVI,WVI,WVI+WVI
31,CECILIA CREEK,CECILIA CREEK,1342,49.42807324,-126.2158204,Stream,930-418588-000000-000000-000000-000000-000000-000000-000000-000000-000000-000000-000000-000000-000000-000000-000000-000000-000000-000000-000000,930-422000-00000-00000-0000-0000-000-000-000-000-000-000,SOUTHWEST VANCOUVER ISLAND,CM-10,CM,Current,41186,WVI,WVI,WVI+WVI
32,CHAMISS CREEK,CHAMISS CREEK,1422,50.07917039,-127.2889006,Stream,930-700522-000000-000000-000000-000000-000000-000000-000000-000000-000000-000000-000000-000000-000000-000000-000000-000000-000000-000000-000000,930-700400-00000-00000-0000-0000-000-000-000-000-000-000,SOUTHWEST VANCOUVER ISLAND,CM-10,CM,Current,39626,WVI,WVI,WVI+WVI
33,CHEEWHAT RIVER,CHEEWHAT RIVER,1241,48.66296674,-124.8106922,Stream,930-071731-000000-000000-000000-000000-000000-000000-000000-000000-000000-000000-000000-000000-000000-000000-000000-000000-000000-000000-000000,930-070100-00000-00000-0000-0000-000-000-000-000-000-000,SOUTHWEST VANCOUVER ISLAND,CM-10,CM,Current,40351,WVI,WVI,WVI+WVI
34,CHINA CREEK,CHINA CREEK,1259,49.15290903,-124.7905115,Stream,930-133780-000000-000000-000000-000000-000000-000000-000000-000000-000000-000000-000000-000000-000000-000000-000000-000000-000000-000000-000000,930-132300-00000-00000-0000-0000-000-000-000-000-000-000,SOUTHWEST VANCOUVER ISLAND,CM-10,CM,Current,40526,WVI,WVI,WVI+WVI
35,CHUM CREEK,,1401,49.96827295,-126.9457738,Stream,930-602577-000000-000000-000000-000000-000000-000000-000000-000000-000000-000000-000000-000000-000000-000000-000000-000000-000000-000000-000000,930-605500-00000-00000-0000-0000-000-000-000-000-000-000,SOUTHWEST VANCOUVER ISLAND,CM-10,CM,Current,41751,WVI,WVI,WVI+WVI
36,CLANNINICK CREEK,CLANNINICK CREEK,1425,50.04141744,-127.4114013,Stream,930-712616-000000-000000-000000-000000-000000-000000-000000-000000-000000-000000-000000-000000-000000-000000-000000-000000-000000-000000-000000,930-713300-00000-00000-0000-0000-000-000-000-000-000-000,SOUTHWEST VANCOUVER ISLAND,CM-10,CM,Current,39656,WVI,WVI,WVI+WVI
37,CLAYOQUOT RIVER - LOWER,CLAYOQUOT RIVER,1310,49.18338133,-125.5376472,Stream Segment,930-302211-132423-000000-000000-000000-000000-000000-000000-000000-000000-000000-000000-000000-000000-000000-000000-000000-000000-000000-000000,930-306400-13900-00000-0000-0000-000-000-000-000-000-000,SOUTHWEST VANCOUVER ISLAND,CM-10,CM,Current,52151,WVI,WVI,WVI+WVI
38,CLAYOQUOT RIVER - UPPER,CLAYOQUOT RIVER,1311,49.20125801,-125.5126189,Stream Segment,930-302211-132423-000000-000000-000000-000000-000000-000000-000000-000000-000000-000000-000000-000000-000000-000000-000000-000000-000000-000000,930-306400-13900-00000-0000-0000-000-000-000-000-000-000,SOUTHWEST VANCOUVER ISLAND,CM-10,CM,Current,52161,WVI,WVI,WVI+WVI
39,CLEMENS CREEK,CLEMENS CREEK,2470,49.13563333,-125.137861,Stream,930-164367-991909-000000-000000-000000-000000-000000-000000-000000-000000-000000-000000-000000-000000-000000-000000-000000-000000-000000-000000,930-162500-98800-00000-0000-0000-000-000-000-000-000-000,SOUTHWEST VANCOUVER ISLAND,CM-10,CM,Current,3175,WVI,WVI,WVI+WVI
40,CLOSE CREEKS (2),,1321,49.15714593,-125.8639751,Stream,935-334340-111194-000000-000000-000000-000000-000000-000000-000000-000000-000000-000000-000000-000000-000000-000000-000000-000000-000000-000000,,SOUTHWEST VANCOUVER ISLAND,CM-10,CM,Current,52256,WVI,WVI,WVI+WVI
41,COEUR D'ALENE CREEK,COEUR D'ALENE CREEK,1278,49.04569594,-125.1381025,Stream,930-187551-000000-000000-000000-000000-000000-000000-000000-000000-000000-000000-000000-000000-000000-000000-000000-000000-000000-000000-000000,930-193200-00000-00000-0000-0000-000-000-000-000-000-000,SOUTHWEST VANCOUVER ISLAND,CM-10,CM,Current,40696,WVI,WVI,WVI+WVI
42,COLEMAN CREEK,COLEMAN CREEK,1257,49.00626566,-124.8577044,Stream,930-125279-000000-000000-000000-000000-000000-000000-000000-000000-000000-000000-000000-000000-000000-000000-000000-000000-000000-000000-000000,930-124200-00000-00000-0000-0000-000-000-000-000-000-000,SOUTHWEST VANCOUVER ISLAND,CM-10,CM,Current,40506,WVI,WVI,WVI+WVI
43,CONE CREEKS (2),,1323,49.19507975,-125.8930876,Stream,935-334340-376170-000000-000000-000000-000000-000000-000000-000000-000000-000000-000000-000000-000000-000000-000000-000000-000000-000000-000000,935-302000-37600-00000-0000-0000-000-000-000-000-000-000,SOUTHWEST VANCOUVER ISLAND,CM-10,CM,Current,52276,WVI,WVI,WVI+WVI
44,CONSINKA CREEK,CONSINKA CREEK,1255,48.9359891,-124.9816979,Stream,930-118343-000000-000000-000000-000000-000000-000000-000000-000000-000000-000000-000000-000000-000000-000000-000000-000000-000000-000000-000000,930-117000-05400-00000-0000-0000-000-000-000-000-000-000,SOUTHWEST VANCOUVER ISLAND,CM-10,CM,Current,40486,WVI,WVI,WVI+WVI
45,CONUMA RIVER,CONUMA RIVER,1369,49.79574855,-126.438553,Stream,930-536074-000000-000000-000000-000000-000000-000000-000000-000000-000000-000000-000000-000000-000000-000000-000000-000000-000000-000000-000000,930-538500-00000-00000-0000-0000-000-000-000-000-000-000,SOUTHWEST VANCOUVER ISLAND,CM-10,CM,Current,41436,WVI,WVI,WVI+WVI
46,COUGAR CREEK,COUGAR CREEK,1366,49.72382597,-126.4560644,Stream,930-527461-000000-000000-000000-000000-000000-000000-000000-000000-000000-000000-000000-000000-000000-000000-000000-000000-000000-000000-000000,930-530500-00000-00000-0000-0000-000-000-000-000-000-000,SOUTHWEST VANCOUVER ISLAND,CM-10,CM,Current,41411,WVI,WVI,WVI+WVI
47,COUS CREEK,COUS CREEK,1267,49.18370799,-124.8296651,Stream,930-144842-000000-000000-000000-000000-000000-000000-000000-000000-000000-000000-000000-000000-000000-000000-000000-000000-000000-000000-000000,930-143000-00000-00000-0000-0000-000-000-000-000-000-000,SOUTHWEST VANCOUVER ISLAND,CM-10,CM,Current,40591,WVI,WVI,WVI+WVI
48,COVER CREEK,COVER CREEK,1392,49.87144525,-126.7438859,Stream,930-572455-000000-000000-000000-000000-000000-000000-000000-000000-000000-000000-000000-000000-000000-000000-000000-000000-000000-000000-000000,930-575200-00000-00000-0000-0000-000-000-000-000-000-000,SOUTHWEST VANCOUVER ISLAND,CM-10,CM,Current,41661,WVI,WVI,WVI+WVI
49,COW CREEK,COW CREEK,2289,49.27475141,-126.1691769,Stream,935-344662-120293-000000-000000-000000-000000-000000-000000-000000-000000-000000-000000-000000-000000-000000-000000-000000-000000-000000-000000,935-374000-12400-00000-0000-0000-000-000-000-000-000-000,SOUTHWEST VANCOUVER ISLAND,CM-10,CM,Current,45198,WVI,WVI,WVI+WVI
50,CYPRE RIVER,CYPRE RIVER,1329,49.27728084,-125.9196799,Stream,930-365210-000000-000000-000000-000000-000000-000000-000000-000000-000000-000000-000000-000000-000000-000000-000000-000000-000000-000000-000000,930-368500-00000-00000-0000-0000-000-000-000-000-000-000,SOUTHWEST VANCOUVER ISLAND,CM-10,CM,Current,52336,WVI,WVI,WVI+WVI
51,DEMIKOSSE CREEK,,1381,49.64222872,-126.6264876,Stream,935-371895-908507-000000-000000-000000-000000-000000-000000-000000-000000-000000-000000-000000-000000-000000-000000-000000-000000-000000-000000,935-483000-90400-00000-0000-0000-000-000-000-000-000-000,SOUTHWEST VANCOUVER ISLAND,CM-10,CM,Current,41556,WVI,WVI,WVI+WVI
52,DESERTED CREEK,,1372,49.75542063,-126.5099253,Stream,930-545884-000000-000000-000000-000000-000000-000000-000000-000000-000000-000000-000000-000000-000000-000000-000000-000000-000000-000000-000000,930-548100-00000-00000-0000-0000-000-000-000-000-000-000,SOUTHWEST VANCOUVER ISLAND,CM-10,CM,Current,41466,WVI,WVI,WVI+WVI
53,DOOBAH CREEK,DOOBAH CREEK,1243,48.74012472,-124.737508,Stream,930-073434-165378-000000-000000-000000-000000-000000-000000-000000-000000-000000-000000-000000-000000-000000-000000-000000-000000-000000-000000,930-071700-15800-00000-0000-0000-000-000-000-000-000-000,SOUTHWEST VANCOUVER ISLAND,CM-10,CM,Current,40371,WVI,WVI,WVI+WVI
54,DUTCH HARBOUR CREEK EAST,,1283,48.96552574,-125.2718441,Stream,930-205268-000000-000000-000000-000000-000000-000000-000000-000000-000000-000000-000000-000000-000000-000000-000000-000000-000000-000000-000000,930-210900-00000-00000-0000-0000-000-000-000-000-000-000,SOUTHWEST VANCOUVER ISLAND,CM-10,CM,Current,40746,WVI,WVI,WVI+WVI
55,DUTCH HARBOUR CREEK WEST,,1284,48.96799817,-125.2846246,Stream,930-205829-000000-000000-000000-000000-000000-000000-000000-000000-000000-000000-000000-000000-000000-000000-000000-000000-000000-000000-000000,930-211500-00000-00000-0000-0000-000-000-000-000-000-000,SOUTHWEST VANCOUVER ISLAND,CM-10,CM,Current,40756,WVI,WVI,WVI+WVI
56,EASY CREEK,,1419,50.12821162,-127.3111755,Stream,930-691582-000000-000000-000000-000000-000000-000000-000000-000000-000000-000000-000000-000000-000000-000000-000000-000000-000000-000000-000000,930-691300-00000-00000-0000-0000-000-000-000-000-000-000,SOUTHWEST VANCOUVER ISLAND,CM-10,CM,Current,40886,WVI,WVI,WVI+WVI
57,EFFINGHAM RIVER,EFFINGHAM RIVER,1279,49.09534128,-125.200767,Stream,930-191124-000000-000000-000000-000000-000000-000000-000000-000000-000000-000000-000000-000000-000000-000000-000000-000000-000000-000000-000000,930-196400-00000-00000-0000-0000-000-000-000-000-000-000,SOUTHWEST VANCOUVER ISLAND,CM-10,CM,Current,40706,WVI,WVI,WVI+WVI
58,EHATISAHT CREEK,EHATISAHT CREEK,1398,49.8753618,-126.8534275,Stream,930-586780-000000-000000-000000-000000-000000-000000-000000-000000-000000-000000-000000-000000-000000-000000-000000-000000-000000-000000-000000,930-589700-00000-00000-0000-0000-000-000-000-000-000-000,SOUTHWEST VANCOUVER ISLAND,CM-10,CM,Current,41721,WVI,WVI,WVI+WVI
59,ELAINE CREEK,,1420,50.12125435,-127.2985649,Stream,930-692089-000000-000000-000000-000000-000000-000000-000000-000000-000000-000000-000000-000000-000000-000000-000000-000000-000000-000000-000000,930-691900-00000-00000-0000-0000-000-000-000-000-000-000,SOUTHWEST VANCOUVER ISLAND,CM-10,CM,Current,40896,WVI,WVI,WVI+WVI
60,ELIZA CREEK,ELIZA CREEK,1404,49.94287928,-127.0515873,Stream,930-618967-000000-000000-000000-000000-000000-000000-000000-000000-000000-000000-000000-000000-000000-000000-000000-000000-000000-000000-000000,930-621100-00000-00000-0000-0000-000-000-000-000-000-000,SOUTHWEST VANCOUVER ISLAND,CM-10,CM,Current,41781,WVI,WVI,WVI+WVI
61,ESCALANTE RIVER,ESCALANTE RIVER,1351,49.54148856,-126.5589341,Stream,930-477282-000000-000000-000000-000000-000000-000000-000000-000000-000000-000000-000000-000000-000000-000000-000000-000000-000000-000000-000000,930-480800-00000-00000-0000-0000-000-000-000-000-000-000,SOUTHWEST VANCOUVER ISLAND,CM-10,CM,Current,41276,WVI,WVI,WVI+WVI
62,ESPINOSA CREEK,ESPINOSA CREEK,1400,49.98881716,-126.9442151,Stream,930-601179-000000-000000-000000-000000-000000-000000-000000-000000-000000-000000-000000-000000-000000-000000-000000-000000-000000-000000-000000,930-604000-00000-00000-0000-0000-000-000-000-000-000-000,SOUTHWEST VANCOUVER ISLAND,CM-10,CM,Current,41741,WVI,WVI,WVI+WVI
63,FALLS CREEK,FALLS CREEK,1232,48.569006,-124.3614106,Stream,930-055749-071868-000000-000000-000000-000000-000000-000000-000000-000000-000000-000000-000000-000000-000000-000000-000000-000000-000000-000000,930-053800-07600-00000-0000-0000-000-000-000-000-000-000,SOUTHWEST VANCOUVER ISLAND,CM-10,CM,Current,40261,WVI,WVI,WVI+WVI
64,FRANKLIN RIVER,FRANKLIN RIVER,1258,49.10302885,-124.8169583,Stream,930-130606-000000-000000-000000-000000-000000-000000-000000-000000-000000-000000-000000-000000-000000-000000-000000-000000-000000-000000-000000,930-129400-00000-00000-0000-0000-000-000-000-000-000-000,SOUTHWEST VANCOUVER ISLAND,CM-10,CM,Current,40516,WVI,WVI,WVI+WVI
65,FREDERICK CREEK,,1253,48.89171327,-124.9975334,Stream,930-112460-069323-000000-000000-000000-000000-000000-000000-000000-000000-000000-000000-000000-000000-000000-000000-000000-000000-000000-000000,930-110800-03000-00000-0000-0000-000-000-000-000-000-000,SOUTHWEST VANCOUVER ISLAND,CM-10,CM,Current,40466,WVI,WVI,WVI+WVI
66,FRIEND CREEK,FRIEND CREEK,1396,49.96913889,-126.8055083,Stream,930-577097-168178-000000-000000-000000-000000-000000-000000-000000-000000-000000-000000-000000-000000-000000-000000-000000-000000-000000-000000,930-579900-17700-00000-0000-0000-000-000-000-000-000-000,SOUTHWEST VANCOUVER ISLAND,CM-10,CM,Current,41701,WVI,WVI,WVI+WVI
67,FUNDY CREEK,FUNDY CREEK,1326,49.19086694,-125.7979068,Stream,935-334340-864317-000000-000000-000000-000000-000000-000000-000000-000000-000000-000000-000000-000000-000000-000000-000000-000000-000000-000000,935-302000-86500-00000-0000-0000-000-000-000-000-000-000,SOUTHWEST VANCOUVER ISLAND,CM-10,CM,Current,52306,WVI,WVI,WVI+WVI
68,GOLD RIVER,GOLD RIVER,1358,49.68114958,-126.1125545,Stream,930-508366-000000-000000-000000-000000-000000-000000-000000-000000-000000-000000-000000-000000-000000-000000-000000-000000-000000-000000-000000,930-511600-00000-00000-0000-0000-000-000-000-000-000-000,SOUTHWEST VANCOUVER ISLAND,CM-10,CM,Current,41346,WVI,WVI,WVI+WVI
69,GORDON RIVER,GORDON RIVER,1238,48.5763729,-124.4146503,Stream,930-056675-000000-000000-000000-000000-000000-000000-000000-000000-000000-000000-000000-000000-000000-000000-000000-000000-000000-000000-000000,930-054700-00000-00000-0000-0000-000-000-000-000-000-000,SOUTHWEST VANCOUVER ISLAND,CM-10,CM,Current,40321,WVI,WVI,WVI+WVI
70,GUISE CREEK,GUISE CREEK,1387,49.80149661,-126.8343772,Stream,935-371895-375919-000000-000000-000000-000000-000000-000000-000000-000000-000000-000000-000000-000000-000000-000000-000000-000000-000000-000000,935-483000-40900-00000-0000-0000-000-000-000-000-000-000,SOUTHWEST VANCOUVER ISLAND,CM-10,CM,Current,41611,WVI,WVI,WVI+WVI
71,HAMMOND CREEK,,1403,49.94379647,-127.044594,Stream,930-618710-000000-000000-000000-000000-000000-000000-000000-000000-000000-000000-000000-000000-000000-000000-000000-000000-000000-000000-000000,930-620900-00000-00000-0000-0000-000-000-000-000-000-000,SOUTHWEST VANCOUVER ISLAND,CM-10,CM,Current,41771,WVI,WVI,WVI+WVI
72,HANNA CREEK,,1365,49.67873977,-126.4745987,Stream,930-522294-000000-000000-000000-000000-000000-000000-000000-000000-000000-000000-000000-000000-000000-000000-000000-000000-000000-000000-000000,930-525200-00000-00000-0000-0000-000-000-000-000-000-000,SOUTHWEST VANCOUVER ISLAND,CM-10,CM,Current,41401,WVI,WVI,WVI+WVI
73,HARRIS CREEK,HARRIS CREEK,1235,48.58229161,-124.275578,Stream,930-055749-213082-000000-000000-000000-000000-000000-000000-000000-000000-000000-000000-000000-000000-000000-000000-000000-000000-000000-000000,930-053800-22100-00000-0000-0000-000-000-000-000-000-000,SOUTHWEST VANCOUVER ISLAND,CM-10,CM,Current,40291,WVI,WVI,WVI+WVI
74,HENDERSON LAKE,HENDERSON LAKE,1273,49.0283341,-125.0511539,Lake,930-164367-000000-000000-000000-000000-000000-000000-000000-000000-000000-000000-000000-000000-000000-000000-000000-000000-000000-000000-000000,930-162500-00000-00000-0000-0000-000-000-000-000-000-000,SOUTHWEST VANCOUVER ISLAND,CM-10,CM,Current,40646,WVI,WVI,WVI+WVI
75,HESQUIAT HARBOUR #2 CREEKS,,1347,49.46236107,-126.4133648,Stream,930-457406-000000-000000-000000-000000-000000-000000-000000-000000-000000-000000-000000-000000-000000-000000-000000-000000-000000-000000-000000,930-460400-00000-00000-0000-0000-000-000-000-000-000-000,SOUTHWEST VANCOUVER ISLAND,CM-10,CM,Current,41236,WVI,WVI,WVI+WVI
76,HESQUIAT HARBOUR #3 CREEKS,,2472,49.47222941,-126.4420415,Stream,930-459646-000000-000000-000000-000000-000000-000000-000000-000000-000000-000000-000000-000000-000000-000000-000000-000000-000000-000000-000000,930-462800-00000-00000-0000-0000-000-000-000-000-000-000,SOUTHWEST VANCOUVER ISLAND,CM-10,CM,Current,44514,WVI,WVI,WVI+WVI
77,HESQUIAT HARBOUR #4 CREEKS,,2291,49.46924854,-126.4484634,Stream,930-459873-000000-000000-000000-000000-000000-000000-000000-000000-000000-000000-000000-000000-000000-000000-000000-000000-000000-000000-000000,930-463100-00000-00000-0000-0000-000-000-000-000-000-000,SOUTHWEST VANCOUVER ISLAND,CM-10,CM,Current,45208,WVI,WVI,WVI+WVI
78,HESQUIAT LAKE CREEK,,1348,49.47403674,-126.402492,Stream,930-458314-000000-000000-000000-000000-000000-000000-000000-000000-000000-000000-000000-000000-000000-000000-000000-000000-000000-000000-000000,930-461400-00000-00000-0000-0000-000-000-000-000-000-000,SOUTHWEST VANCOUVER ISLAND,CM-10,CM,Current,41246,WVI,WVI,WVI+WVI
79,HILLIER CREEK,,1295,48.95535719,-125.5506561,Stream,930-232561-000000-000000-000000-000000-000000-000000-000000-000000-000000-000000-000000-000000-000000-000000-000000-000000-000000-000000-000000,930-242800-00000-00000-0000-0000-000-000-000-000-000-000,SOUTHWEST VANCOUVER ISLAND,CM-10,CM,Current,39596,WVI,WVI,WVI+WVI
80,HOBITON CREEK,HOBITON CREEK,1245,48.77494949,-124.737037,Stream,930-073434-205913-000000-000000-000000-000000-000000-000000-000000-000000-000000-000000-000000-000000-000000-000000-000000-000000-000000-000000,930-071700-20600-00000-0000-0000-000-000-000-000-000-000,SOUTHWEST VANCOUVER ISLAND,CM-10,CM,Current,40386,WVI,WVI,WVI+WVI
81,HOISS CREEK,HOISS CREEK,1373,49.69694686,-126.5656996,Stream,930-553866-000000-000000-000000-000000-000000-000000-000000-000000-000000-000000-000000-000000-000000-000000-000000-000000-000000-000000-000000,930-556300-00000-00000-0000-0000-000-000-000-000-000-000,SOUTHWEST VANCOUVER ISLAND,CM-10,CM,Current,41476,WVI,WVI,WVI+WVI
82,HOLFORD CREEK,HOLFORD CREEK,1275,48.93582388,-125.0843822,Stream,935-316123-393394-000000-000000-000000-000000-000000-000000-000000-000000-000000-000000-000000-000000-000000-000000-000000-000000-000000-000000,935-110500-38900-00000-0000-0000-000-000-000-000-000-000,SOUTHWEST VANCOUVER ISLAND,CM-10,CM,Current,40666,WVI,WVI,WVI+WVI
83,HOOTLA KOOTLA CREEK,,1338,49.36224059,-126.2261138,Stream,935-344662-395254-000000-000000-000000-000000-000000-000000-000000-000000-000000-000000-000000-000000-000000-000000-000000-000000-000000-000000,935-374000-38800-00000-0000-0000-000-000-000-000-000-000,SOUTHWEST VANCOUVER ISLAND,CM-10,CM,Current,41146,WVI,WVI,WVI+WVI
84,HOT SPRINGS COVE CREEK,,1345,49.37940231,-126.2701353,Stream,930-446898-000000-000000-000000-000000-000000-000000-000000-000000-000000-000000-000000-000000-000000-000000-000000-000000-000000-000000-000000,930-449900-00000-00000-0000-0000-000-000-000-000-000-000,SOUTHWEST VANCOUVER ISLAND,CM-10,CM,Current,41216,WVI,WVI,WVI+WVI
85,HOUSTON RIVER,HOUSTON RIVER,1354,49.63510629,-126.3027051,Stream,930-494183-000000-000000-000000-000000-000000-000000-000000-000000-000000-000000-000000-000000-000000-000000-000000-000000-000000-000000-000000,930-497700-00000-00000-0000-0000-000-000-000-000-000-000,SOUTHWEST VANCOUVER ISLAND,CM-10,CM,Current,41306,WVI,WVI,WVI+WVI
86,ICE RIVER,ICE RIVER,1343,49.47413788,-126.2305348,Stream,930-423523-000000-000000-000000-000000-000000-000000-000000-000000-000000-000000-000000-000000-000000-000000-000000-000000-000000-000000-000000,930-426900-00000-00000-0000-0000-000-000-000-000-000-000,SOUTHWEST VANCOUVER ISLAND,CM-10,CM,Current,41196,WVI,WVI,WVI+WVI
87,INNER BASIN RIVER (RANSOM),,1385,49.79651901,-126.7446332,Stream,935-371895-335680-000000-000000-000000-000000-000000-000000-000000-000000-000000-000000-000000-000000-000000-000000-000000-000000-000000-000000,935-483000-37000-00000-0000-0000-000-000-000-000-000-000,SOUTHWEST VANCOUVER ISLAND,CM-10,CM,Current,41591,WVI,WVI,WVI+WVI
88,ITATSOO CREEK,ITATSOO CREEK,1294,48.92720166,-125.5041153,Stream,930-232561-000000-000000-000000-000000-000000-000000-000000-000000-000000-000000-000000-000000-000000-000000-000000-000000-000000-000000-000000,930-239300-00000-00000-0000-0000-000-000-000-000-000-000,SOUTHWEST VANCOUVER ISLAND,CM-10,CM,Current,39586,WVI,WVI,WVI+WVI
89,JACKLAH RIVER,JACKLAH RIVER,1355,49.64681473,-126.1552384,Stream,930-499033-000000-000000-000000-000000-000000-000000-000000-000000-000000-000000-000000-000000-000000-000000-000000-000000-000000-000000-000000,930-502700-00000-00000-0000-0000-000-000-000-000-000-000,SOUTHWEST VANCOUVER ISLAND,CM-10,CM,Current,41316,WVI,WVI,WVI+WVI
90,JANSEN LAKE CREEK,,1421,50.11891865,-127.2944509,Stream,930-692270-000000-000000-000000-000000-000000-000000-000000-000000-000000-000000-000000-000000-000000-000000-000000-000000-000000-000000-000000,930-692100-00000-00000-0000-0000-000-000-000-000-000-000,SOUTHWEST VANCOUVER ISLAND,CM-10,CM,Current,39616,WVI,WVI,WVI+WVI
91,JORDAN RIVER,JORDAN RIVER,1228,48.42189517,-124.0551848,Stream,930-038943-000000-000000-000000-000000-000000-000000-000000-000000-000000-000000-000000-000000-000000-000000-000000-000000-000000-000000-000000,930-037300-00000-00000-0000-0000-000-000-000-000-000-000,SOUTHWEST VANCOUVER ISLAND,CM-10,CM,Current,40221,WVI,WVI,WVI+WVI
92,KAOUK RIVER,KAOUK RIVER,1412,50.0635084,-127.0985149,Stream,930-665189-000000-000000-000000-000000-000000-000000-000000-000000-000000-000000-000000-000000-000000-000000-000000-000000-000000-000000-000000,930-665700-00000-00000-0000-0000-000-000-000-000-000-000,SOUTHWEST VANCOUVER ISLAND,CM-10,CM,Current,41861,WVI,WVI,WVI+WVI
93,KAPOOSE CREEK,KAPOOSE CREEK,1407,49.94823143,-127.2208981,Stream,930-637476-000000-000000-000000-000000-000000-000000-000000-000000-000000-000000-000000-000000-000000-000000-000000-000000-000000-000000-000000,930-639800-00000-00000-0000-0000-000-000-000-000-000-000,SOUTHWEST VANCOUVER ISLAND,CM-10,CM,Current,41811,WVI,WVI,WVI+WVI
94,KASHUTL RIVER,KASHUTL RIVER,1418,50.19495862,-127.3098438,Stream,930-687605-000000-000000-000000-000000-000000-000000-000000-000000-000000-000000-000000-000000-000000-000000-000000-000000-000000-000000-000000,930-687400-00000-00000-0000-0000-000-000-000-000-000-000,SOUTHWEST VANCOUVER ISLAND,CM-10,CM,Current,40876,WVI,WVI,WVI+WVI
95,KAUWINCH RIVER,KAUWINCH RIVER,1417,50.14450885,-127.2707541,Stream,930-683984-000000-000000-000000-000000-000000-000000-000000-000000-000000-000000-000000-000000-000000-000000-000000-000000-000000-000000-000000,930-683800-00000-00000-0000-0000-000-000-000-000-000-000,SOUTHWEST VANCOUVER ISLAND,CM-10,CM,Current,40866,WVI,WVI,WVI+WVI
96,KENDRICK CREEK,KENDRICK CREEK,1379,49.72746053,-126.6505712,Stream,935-371895-841754-000000-000000-000000-000000-000000-000000-000000-000000-000000-000000-000000-000000-000000-000000-000000-000000-000000-000000,935-483000-84200-00000-0000-0000-000-000-000-000-000-000,SOUTHWEST VANCOUVER ISLAND,CM-10,CM,Current,41536,WVI,WVI,WVI+WVI
97,KENNEDY RIVER - LOWER,KENNEDY RIVER,1306,49.13655189,-125.6676695,Stream Segment,930-302211-000000-000000-000000-000000-000000-000000-000000-000000-000000-000000-000000-000000-000000-000000-000000-000000-000000-000000-000000,930-306400-00000-00000-0000-0000-000-000-000-000-000-000,SOUTHWEST VANCOUVER ISLAND,CM-10,CM,Current,52116,WVI,WVI,WVI+WVI
98,KENNEDY RIVER - UPPER,KENNEDY RIVER,1305,49.12740279,-125.4348961,Stream Segment,930-302211-000000-000000-000000-000000-000000-000000-000000-000000-000000-000000-000000-000000-000000-000000-000000-000000-000000-000000-000000,930-306400-00000-00000-0000-0000-000-000-000-000-000-000,SOUTHWEST VANCOUVER ISLAND,CM-10,CM,Current,52106,WVI,WVI,WVI+WVI
99,KITSUCKSUS CREEK,KITSUCKSUS CREEK,2007,49.25821426,-124.8146296,Stream,930-139262-150763-000000-000000-000000-000000-000000-000000-000000-000000-000000-000000-000000-000000-000000-000000-000000-000000-000000-000000,930-137400-17300-00000-0000-0000-000-000-000-000-000-000,SOUTHWEST VANCOUVER ISLAND,CM-10,CM,Current,3312,WVI,WVI,WVI+WVI
100,KLANAWA RIVER,KLANAWA RIVER,1248,48.69869714,-124.9476867,Stream,930-077174-000000-000000-000000-000000-000000-000000-000000-000000-000000-000000-000000-000000-000000-000000-000000-000000-000000-000000-000000,930-075500-00000-00000-0000-0000-000-000-000-000-000-000,SOUTHWEST VANCOUVER ISLAND,CM-10,CM,Current,40416,WVI,WVI,WVI+WVI
101,KLEEPTEE CREEK,KLEEPTEE CREEK,1364,49.66236422,-126.3702565,Stream,930-518027-000000-000000-000000-000000-000000-000000-000000-000000-000000-000000-000000-000000-000000-000000-000000-000000-000000-000000-000000,930-521000-00000-00000-0000-0000-000-000-000-000-000-000,SOUTHWEST VANCOUVER ISLAND,CM-10,CM,Current,41391,WVI,WVI,WVI+WVI
102,KOOTOWIS CREEK,KOOTOWIS CREEK,1302,49.09086324,-125.725111,Stream,930-296348-000000-000000-000000-000000-000000-000000-000000-000000-000000-000000-000000-000000-000000-000000-000000-000000-000000-000000-000000,930-300800-00000-00000-0000-0000-000-000-000-000-000-000,SOUTHWEST VANCOUVER ISLAND,CM-10,CM,Current,52076,WVI,WVI,WVI+WVI
103,LAURIE CREEK,LAURIE CREEK,1384,49.77510174,-126.8298999,Stream,935-371895-277380-000000-000000-000000-000000-000000-000000-000000-000000-000000-000000-000000-000000-000000-000000-000000-000000-000000-000000,935-483000-31400-00000-0000-0000-000-000-000-000-000-000,SOUTHWEST VANCOUVER ISLAND,CM-10,CM,Current,41581,WVI,WVI,WVI+WVI
104,LEINER RIVER,LEINER RIVER,1375,49.91188568,-126.643389,Stream,930-564944-000000-000000-000000-000000-000000-000000-000000-000000-000000-000000-000000-000000-000000-000000-000000-000000-000000-000000-000000,930-567600-00000-00000-0000-0000-000-000-000-000-000-000,SOUTHWEST VANCOUVER ISLAND,CM-10,CM,Current,41496,WVI,WVI,WVI+WVI
105,LENS CREEK,LENS CREEK,1237,48.586407,-124.258357,Stream,930-055749-238722-000000-000000-000000-000000-000000-000000-000000-000000-000000-000000-000000-000000-000000-000000-000000-000000-000000-000000,930-053800-25200-00000-0000-0000-000-000-000-000-000-000,SOUTHWEST VANCOUVER ISLAND,CM-10,CM,Current,40311,WVI,WVI,WVI+WVI
106,LITTLE MAGGIE RIVER,,1291,48.97821828,-125.3941865,Stream,930-227481-000000-000000-000000-000000-000000-000000-000000-000000-000000-000000-000000-000000-000000-000000-000000-000000-000000-000000-000000,930-234200-00000-00000-0000-0000-000-000-000-000-000-000,SOUTHWEST VANCOUVER ISLAND,CM-10,CM,Current,39556,WVI,WVI,WVI+WVI
107,LITTLE TOQUART CREEK,LITTLE TOQUART CREEK,1289,49.04107712,-125.3609243,Stream,930-223732-027604-000000-000000-000000-000000-000000-000000-000000-000000-000000-000000-000000-000000-000000-000000-000000-000000-000000-000000,930-230500-03800-00000-0000-0000-000-000-000-000-000-000,SOUTHWEST VANCOUVER ISLAND,CM-10,CM,Current,39536,WVI,WVI,WVI+WVI
108,LITTLE WHITEPINE COVE #1 CREEK,,1332,49.29441692,-125.9810532,Stream,930-378997-000000-000000-000000-000000-000000-000000-000000-000000-000000-000000-000000-000000-000000-000000-000000-000000-000000-000000-000000,930-382000-00000-00000-0000-0000-000-000-000-000-000-000,SOUTHWEST VANCOUVER ISLAND,CM-10,CM,Current,41091,WVI,WVI,WVI+WVI
109,LITTLE ZEBALLOS RIVER,LITTLE ZEBALLOS RIVER,1394,49.95574704,-126.8170348,Stream,930-577097-000000-000000-000000-000000-000000-000000-000000-000000-000000-000000-000000-000000-000000-000000-000000-000000-000000-000000-000000,930-579900-00000-00000-0000-0000-000-000-000-000-000-000,SOUTHWEST VANCOUVER ISLAND,CM-10,CM,Current,41681,WVI,WVI,WVI+WVI
110,LORD CREEK,LORD CREEK,1391,49.87316427,-126.7118066,Stream,930-571383-000000-000000-000000-000000-000000-000000-000000-000000-000000-000000-000000-000000-000000-000000-000000-000000-000000-000000-000000,930-574100-00000-00000-0000-0000-000-000-000-000-000-000,SOUTHWEST VANCOUVER ISLAND,CM-10,CM,Current,41651,WVI,WVI,WVI+WVI
111,LOST SHOE CREEK,LOST SHOE CREEK,1299,49.0028941,-125.6399383,Stream,930-253054-000000-000000-000000-000000-000000-000000-000000-000000-000000-000000-000000-000000-000000-000000-000000-000000-000000-000000-000000,930-260600-00000-00000-0000-0000-000-000-000-000-000-000,SOUTHWEST VANCOUVER ISLAND,CM-10,CM,Current,40826,WVI,WVI,WVI+WVI
112,LUCKY CREEK,LUCKY CREEK,1287,49.02744374,-125.3054012,Stream,930-221312-000000-000000-000000-000000-000000-000000-000000-000000-000000-000000-000000-000000-000000-000000-000000-000000-000000-000000-000000,930-227800-00000-00000-0000-0000-000-000-000-000-000-000,SOUTHWEST VANCOUVER ISLAND,CM-10,CM,Current,40786,WVI,WVI,WVI+WVI
113,MACKTUSH CREEK,MACKTUSH CREEK,1269,49.11130692,-124.8264514,Stream,930-148806-000000-000000-000000-000000-000000-000000-000000-000000-000000-000000-000000-000000-000000-000000-000000-000000-000000-000000-000000,930-147000-00000-00000-0000-0000-000-000-000-000-000-000,SOUTHWEST VANCOUVER ISLAND,CM-10,CM,Current,40606,WVI,WVI,WVI+WVI
114,MAGGIE RIVER,MAGGIE RIVER,1290,48.98495147,-125.3934898,Stream,930-227126-000000-000000-000000-000000-000000-000000-000000-000000-000000-000000-000000-000000-000000-000000-000000-000000-000000-000000-000000,930-233800-00000-00000-0000-0000-000-000-000-000-000-000,SOUTHWEST VANCOUVER ISLAND,CM-10,CM,Current,39546,WVI,WVI,WVI+WVI
115,MALKSOPE RIVER,MALKSOPE RIVER,1426,50.13851576,-127.4228266,Stream,930-721847-000000-000000-000000-000000-000000-000000-000000-000000-000000-000000-000000-000000-000000-000000-000000-000000-000000-000000-000000,930-722200-00000-00000-0000-0000-000-000-000-000-000-000,SOUTHWEST VANCOUVER ISLAND,CM-10,CM,Current,39666,WVI,WVI,WVI+WVI
116,MAMAT CREEK,MAMAT CREEK,1399,49.96029881,-126.9097898,Stream,930-596397-000000-000000-000000-000000-000000-000000-000000-000000-000000-000000-000000-000000-000000-000000-000000-000000-000000-000000-000000,930-599200-00000-00000-0000-0000-000-000-000-000-000-000,SOUTHWEST VANCOUVER ISLAND,CM-10,CM,Current,41731,WVI,WVI,WVI+WVI
117,MARVINAS BAY CREEK,,1380,49.65592776,-126.6272632,Stream,935-371895-898401-000000-000000-000000-000000-000000-000000-000000-000000-000000-000000-000000-000000-000000-000000-000000-000000-000000-000000,935-483000-89500-00000-0000-0000-000-000-000-000-000-000,SOUTHWEST VANCOUVER ISLAND,CM-10,CM,Current,41546,WVI,WVI,WVI+WVI
118,MCCURDY CREEK,MCCURDY CREEK,1363,49.6723095,-126.1883645,Stream,930-511663-000000-000000-000000-000000-000000-000000-000000-000000-000000-000000-000000-000000-000000-000000-000000-000000-000000-000000-000000,930-514500-00000-00000-0000-0000-000-000-000-000-000-000,SOUTHWEST VANCOUVER ISLAND,CM-10,CM,Current,41381,WVI,WVI,WVI+WVI
119,MCKAY COVE CREEK,,1424,50.0469747,-127.3567892,Stream,930-708660-000000-000000-000000-000000-000000-000000-000000-000000-000000-000000-000000-000000-000000-000000-000000-000000-000000-000000-000000,930-708900-00000-00000-0000-0000-000-000-000-000-000-000,SOUTHWEST VANCOUVER ISLAND,CM-10,CM,Current,39646,WVI,WVI,WVI+WVI
120,MEARES CREEK,MEARES CREEK,1320,49.14924727,-125.8588298,Stream,935-334340-077874-000000-000000-000000-000000-000000-000000-000000-000000-000000-000000-000000-000000-000000-000000-000000-000000-000000-000000,935-302000-07800-00000-0000-0000-000-000-000-000-000-000,SOUTHWEST VANCOUVER ISLAND,CM-10,CM,Current,52246,WVI,WVI,WVI+WVI
121,MEGIN RIVER,MEGIN RIVER,1341,49.43683073,-126.0849837,Stream,930-410014-000000-000000-000000-000000-000000-000000-000000-000000-000000-000000-000000-000000-000000-000000-000000-000000-000000-000000-000000,930-413500-00000-00000-0000-0000-000-000-000-000-000-000,SOUTHWEST VANCOUVER ISLAND,CM-10,CM,Current,41176,WVI,WVI,WVI+WVI
122,MERCANTILE CREEK,MERCANTILE CREEK,1296,48.96298492,-125.5584854,Stream,930-236502-000000-000000-000000-000000-000000-000000-000000-000000-000000-000000-000000-000000-000000-000000-000000-000000-000000-000000-000000,930-243300-00000-00000-0000-0000-000-000-000-000-000-000,SOUTHWEST VANCOUVER ISLAND,CM-10,CM,Current,39606,WVI,WVI,WVI+WVI
123,MIDDLE ELIZA CREEK,,2298,49.94327236,-127.0502892,Stream,930-618921-000000-000000-000000-000000-000000-000000-000000-000000-000000-000000-000000-000000-000000-000000-000000-000000-000000-000000-000000,930-621100-04200-00000-0000-0000-000-000-000-000-000-000,SOUTHWEST VANCOUVER ISLAND,CM-10,CM,Current,44780,WVI,WVI,WVI+WVI
124,MOOYAH RIVER,MOOYAH RIVER,1352,49.62965569,-126.4470716,Stream,930-488088-000000-000000-000000-000000-000000-000000-000000-000000-000000-000000-000000-000000-000000-000000-000000-000000-000000-000000-000000,930-491500-00000-00000-0000-0000-000-000-000-000-000-000,SOUTHWEST VANCOUVER ISLAND,CM-10,CM,Current,41286,WVI,WVI,WVI+WVI
125,MOYEHA RIVER,MOYEHA RIVER,1335,49.41797231,-125.9124379,Stream,930-388774-000000-000000-000000-000000-000000-000000-000000-000000-000000-000000-000000-000000-000000-000000-000000-000000-000000-000000-000000,930-391800-00000-00000-0000-0000-000-000-000-000-000-000,SOUTHWEST VANCOUVER ISLAND,CM-10,CM,Current,41121,WVI,WVI,WVI+WVI
126,MUCHALAT RIVER,MUCHALAT RIVER,1361,49.84250965,-126.0935163,Stream,930-508366-413291-000000-000000-000000-000000-000000-000000-000000-000000-000000-000000-000000-000000-000000-000000-000000-000000-000000-000000,930-511600-42100-00000-0000-0000-000-000-000-000-000-000,SOUTHWEST VANCOUVER ISLAND,CM-10,CM,Current,41363,WVI,WVI,WVI+WVI
127,MURIEL LAKE,MURIEL LAKE,1308,49.12404568,-125.614759,Lake,930-302211-024981-000000-000000-000000-000000-000000-000000-000000-000000-000000-000000-000000-000000-000000-000000-000000-000000-000000-000000,930-306400-02600-00000-0000-0000-000-000-000-000-000-000,SOUTHWEST VANCOUVER ISLAND,CM-10,CM,Current,52136,WVI,WVI,WVI+WVI
128,NAHMINT RIVER,NAHMINT RIVER,1270,49.06233209,-124.8844262,Stream,930-152772-000000-000000-000000-000000-000000-000000-000000-000000-000000-000000-000000-000000-000000-000000-000000-000000-000000-000000-000000,930-150800-00000-00000-0000-0000-000-000-000-000-000-000,SOUTHWEST VANCOUVER ISLAND,CM-10,CM,Current,40616,WVI,WVI,WVI+WVI
129,NARROWGUT CREEK,NARROWGUT CREEK,1409,49.99654491,-127.1230943,Stream,930-646221-000000-000000-000000-000000-000000-000000-000000-000000-000000-000000-000000-000000-000000-000000-000000-000000-000000-000000-000000,930-648400-00000-00000-0000-0000-000-000-000-000-000-000,SOUTHWEST VANCOUVER ISLAND,CM-10,CM,Current,41831,WVI,WVI,WVI+WVI
130,NASPARTI RIVER,,1430,50.19204732,-127.6082663,Stream,930-746556-000000-000000-000000-000000-000000-000000-000000-000000-000000-000000-000000-000000-000000-000000-000000-000000-000000-000000-000000,930-747000-00000-00000-0000-0000-000-000-000-000-000-000,SOUTHWEST VANCOUVER ISLAND,CM-10,CM,Current,39706,WVI,WVI,WVI+WVI
131,NITINAT RIVER,NITINAT RIVER,1242,48.67076001,-124.851885,Stream,930-073434-000000-000000-000000-000000-000000-000000-000000-000000-000000-000000-000000-000000-000000-000000-000000-000000-000000-000000-000000,930-071700-00000-00000-0000-0000-000-000-000-000-000-000,SOUTHWEST VANCOUVER ISLAND,CM-10,CM,Current,40361,WVI,WVI,WVI+WVI
132,OUOUKINSH RIVER,OUOUKINSH RIVER,1427,50.1871283,-127.4340013,Stream,930-729741-000000-000000-000000-000000-000000-000000-000000-000000-000000-000000-000000-000000-000000-000000-000000-000000-000000-000000-000000,930-730300-00000-00000-0000-0000-000-000-000-000-000-000,SOUTHWEST VANCOUVER ISLAND,CM-10,CM,Current,39676,WVI,WVI,WVI+WVI
133,OWOSSITSA CREEK,OWOSSITSA CREEK,1388,49.82972586,-126.9169139,Stream,935-371895-559404-000000-000000-000000-000000-000000-000000-000000-000000-000000-000000-000000-000000-000000-000000-000000-000000-000000-000000,935-483000-57000-00000-0000-0000-000-000-000-000-000-000,SOUTHWEST VANCOUVER ISLAND,CM-10,CM,Current,41621,WVI,WVI,WVI+WVI
134,PACHENA RIVER,PACHENA RIVER,1249,48.79845705,-125.127194,Stream,930-087113-000000-000000-000000-000000-000000-000000-000000-000000-000000-000000-000000-000000-000000-000000-000000-000000-000000-000000-000000,930-085500-00000-00000-0000-0000-000-000-000-000-000-000,SOUTHWEST VANCOUVER ISLAND,CM-10,CM,Current,40426,WVI,WVI,WVI+WVI
135,PACILTH CREEK,,2637,49.45100727,-126.4612526,Stream,930-460859-000000-000000-000000-000000-000000-000000-000000-000000-000000-000000-000000-000000-000000-000000-000000-000000-000000-000000-000000,930-464100-00000-00000-0000-0000-000-000-000-000-000-000,SOUTHWEST VANCOUVER ISLAND,CM-10,CM,Current,3261,WVI,WVI,WVI+WVI
136,PARK RIVER,PARK RIVER,1402,49.8863339,-126.9887789,Stream,930-613579-000000-000000-000000-000000-000000-000000-000000-000000-000000-000000-000000-000000-000000-000000-000000-000000-000000-000000-000000,930-615900-00000-00000-0000-0000-000-000-000-000-000-000,SOUTHWEST VANCOUVER ISLAND,CM-10,CM,Current,41761,WVI,WVI,WVI+WVI
137,PERRY RIVER,PERRY RIVER,1376,49.91689414,-126.6217032,Stream,930-564944-126448-000000-000000-000000-000000-000000-000000-000000-000000-000000-000000-000000-000000-000000-000000-000000-000000-000000-000000,930-567600-14900-00000-0000-0000-000-000-000-000-000-000,SOUTHWEST VANCOUVER ISLAND,CM-10,CM,Current,41506,WVI,WVI,WVI+WVI
138,PIPESTEAM CREEK,,1286,49.03768332,-125.2005414,Stream,930-217626-000000-000000-000000-000000-000000-000000-000000-000000-000000-000000-000000-000000-000000-000000-000000-000000-000000-000000-000000,930-224000-00000-00000-0000-0000-000-000-000-000-000-000,SOUTHWEST VANCOUVER ISLAND,CM-10,CM,Current,40776,WVI,WVI,WVI+WVI
139,PLUMPER BAY CREEK,,2294,49.6955027,-126.6366223,Stream,935-371895-860968-000000-000000-000000-000000-000000-000000-000000-000000-000000-000000-000000-000000-000000-000000-000000-000000-000000-000000,935-483000-86000-00000-0000-0000-000-000-000-000-000-000,SOUTHWEST VANCOUVER ISLAND,CM-10,CM,Current,45131,WVI,WVI,WVI+WVI
140,POETT NOOK CREEK,,1251,48.87689009,-125.0526596,Stream,930-110667-000000-000000-000000-000000-000000-000000-000000-000000-000000-000000-000000-000000-000000-000000-000000-000000-000000-000000-000000,930-108700-00000-00000-0000-0000-000-000-000-000-000-000,SOUTHWEST VANCOUVER ISLAND,CM-10,CM,Current,40446,WVI,WVI,WVI+WVI
141,PORRITT CREEK,PORRITT CREEK,1406,49.92451266,-127.2031236,Stream,930-635582-000000-000000-000000-000000-000000-000000-000000-000000-000000-000000-000000-000000-000000-000000-000000-000000-000000-000000-000000,930-637700-00000-00000-0000-0000-000-000-000-000-000-000,SOUTHWEST VANCOUVER ISLAND,CM-10,CM,Current,41801,WVI,WVI,WVI+WVI
142,POWER RIVER,POWER RIVER,1428,50.17997736,-127.4797426,Stream,930-731806-000000-000000-000000-000000-000000-000000-000000-000000-000000-000000-000000-000000-000000-000000-000000-000000-000000-000000-000000,930-732300-00000-00000-0000-0000-000-000-000-000-000-000,SOUTHWEST VANCOUVER ISLAND,CM-10,CM,Current,39686,WVI,WVI,WVI+WVI
143,PURDON CREEK,PURDON CREEK,1350,49.39908628,-126.4676796,Stream,930-464359-000000-000000-000000-000000-000000-000000-000000-000000-000000-000000-000000-000000-000000-000000-000000-000000-000000-000000-000000,930-467600-00000-00000-0000-0000-000-000-000-000-000-000,SOUTHWEST VANCOUVER ISLAND,CM-10,CM,Current,41266,WVI,WVI,WVI+WVI
144,RENFREW CREEK,RENFREW CREEK,1234,48.58168716,-124.3417366,Stream,930-055749-116228-000000-000000-000000-000000-000000-000000-000000-000000-000000-000000-000000-000000-000000-000000-000000-000000-000000-000000,930-053800-12100-05400-0000-0000-000-000-000-000-000-000,SOUTHWEST VANCOUVER ISLAND,CM-10,CM,Current,40281,WVI,WVI,WVI+WVI
145,RILEY CREEK,RILEY CREEK,1339,49.3888961,-126.2204495,Stream,935-344662-471279-000000-000000-000000-000000-000000-000000-000000-000000-000000-000000-000000-000000-000000-000000-000000-000000-000000-000000,935-374000-46200-00000-0000-0000-000-000-000-000-000-000,SOUTHWEST VANCOUVER ISLAND,CM-10,CM,Current,41156,WVI,WVI,WVI+WVI
146,RITHERDON CREEK,RITHERDON CREEK,1256,48.95270362,-124.9759819,Stream,930-119495-000000-000000-000000-000000-000000-000000-000000-000000-000000-000000-000000-000000-000000-000000-000000-000000-000000-000000-000000,930-118300-00000-00000-0000-0000-000-000-000-000-000-000,SOUTHWEST VANCOUVER ISLAND,CM-10,CM,Current,40496,WVI,WVI,WVI+WVI
147,SAN JUAN RIVER,SAN JUAN RIVER,1231,48.55997814,-124.3987804,Stream,930-055749-000000-000000-000000-000000-000000-000000-000000-000000-000000-000000-000000-000000-000000-000000-000000-000000-000000-000000-000000,930-053800-00000-00000-0000-0000-000-000-000-000-000-000,SOUTHWEST VANCOUVER ISLAND,CM-10,CM,Current,40251,WVI,WVI,WVI+WVI
148,SAND RIVER,SAND RIVER,2474,49.11275622,-125.5021961,Stream,930-302211-342758-000000-000000-000000-000000-000000-000000-000000-000000-000000-000000-000000-000000-000000-000000-000000-000000-000000-000000,930-306400-33200-00000-0000-0000-000-000-000-000-000-000,SOUTHWEST VANCOUVER ISLAND,CM-10,CM,Current,44534,WVI,WVI,WVI+WVI
149,SANDHILL CREEK,SANDHILL CREEK,1300,49.03245499,-125.6872034,Stream,930-257099-000000-000000-000000-000000-000000-000000-000000-000000-000000-000000-000000-000000-000000-000000-000000-000000-000000-000000-000000,930-264800-00000-00000-0000-0000-000-000-000-000-000-000,SOUTHWEST VANCOUVER ISLAND,CM-10,CM,Current,40836,WVI,WVI,WVI+WVI
150,SANTIAGO CREEK,SANTIAGO CREEK,2293,49.80222441,-126.6471197,Stream,930-559965-000000-000000-000000-000000-000000-000000-000000-000000-000000-000000-000000-000000-000000-000000-000000-000000-000000-000000-000000,930-562400-00000-00000-0000-0000-000-000-000-000-000-000,SOUTHWEST VANCOUVER ISLAND,CM-10,CM,Current,45121,WVI,WVI,WVI+WVI
151,SARITA RIVER,SARITA RIVER,1252,48.89706946,-125.0169178,Stream,930-112460-000000-000000-000000-000000-000000-000000-000000-000000-000000-000000-000000-000000-000000-000000-000000-000000-000000-000000-000000,930-110800-00000-00000-0000-0000-000-000-000-000-000-000,SOUTHWEST VANCOUVER ISLAND,CM-10,CM,Current,40456,WVI,WVI,WVI+WVI
152,SECHART CREEK,,1282,48.95492678,-125.2489045,Stream,930-203749-000000-000000-000000-000000-000000-000000-000000-000000-000000-000000-000000-000000-000000-000000-000000-000000-000000-000000-000000,930-209300-00000-00000-0000-0000-000-000-000-000-000-000,SOUTHWEST VANCOUVER ISLAND,CM-10,CM,Current,40736,WVI,WVI,WVI+WVI
153,SHARP CREEK,SHARP CREEK,1322,49.18463887,-125.8636961,Stream,935-334340-148410-000000-000000-000000-000000-000000-000000-000000-000000-000000-000000-000000-000000-000000-000000-000000-000000-000000-000000,935-302000-14700-00000-0000-0000-000-000-000-000-000-000,SOUTHWEST VANCOUVER ISLAND,CM-10,CM,Current,52266,WVI,WVI,WVI+WVI
154,SILBURN CREEK,,1415,50.14984396,-127.124784,Stream,930-673175-063720-000000-000000-000000-000000-000000-000000-000000-000000-000000-000000-000000-000000-000000-000000-000000-000000-000000-000000,930-673300-06300-00000-0000-0000-000-000-000-000-000-000,SOUTHWEST VANCOUVER ISLAND,CM-10,CM,Current,41891,WVI,WVI,WVI+WVI
155,SILVERADO CREEK,SILVERADO CREEK,1353,49.62850365,-126.371472,Stream,930-491288-000000-000000-000000-000000-000000-000000-000000-000000-000000-000000-000000-000000-000000-000000-000000-000000-000000-000000-000000,930-494700-00000-00000-0000-0000-000-000-000-000-000-000,SOUTHWEST VANCOUVER ISLAND,CM-10,CM,Current,41296,WVI,WVI,WVI+WVI
156,SMITH CREEK,SMITH CREEK,1298,48.97802314,-125.5744113,Stream,930-237609-000000-000000-000000-000000-000000-000000-000000-000000-000000-000000-000000-000000-000000-000000-000000-000000-000000-000000-000000,930-244500-00000-00000-0000-0000-000-000-000-000-000-000,SOUTHWEST VANCOUVER ISLAND,CM-10,CM,Current,40816,WVI,WVI,WVI+WVI
157,SNUG BASIN CREEK,,1272,49.02521424,-125.0236787,Stream,930-163426-000000-000000-000000-000000-000000-000000-000000-000000-000000-000000-000000-000000-000000-000000-000000-000000-000000-000000-000000,930-161600-00000-00000-0000-0000-000-000-000-000-000-000,SOUTHWEST VANCOUVER ISLAND,CM-10,CM,Current,40636,WVI,WVI,WVI+WVI
158,SOATWOON CREEK,SOATWOON CREEK,1411,50.02827202,-127.1093748,Stream,930-653112-000000-000000-000000-000000-000000-000000-000000-000000-000000-000000-000000-000000-000000-000000-000000-000000-000000-000000-000000,930-654500-00000-00000-0000-0000-000-000-000-000-000-000,SOUTHWEST VANCOUVER ISLAND,CM-10,CM,Current,41851,WVI,WVI,WVI+WVI
159,SOMASS RIVER,SOMASS RIVER,1261,49.24639679,-124.8198397,Stream,930-139262-000000-000000-000000-000000-000000-000000-000000-000000-000000-000000-000000-000000-000000-000000-000000-000000-000000-000000-000000,930-137400-00000-00000-0000-0000-000-000-000-000-000-000,SOUTHWEST VANCOUVER ISLAND,CM-10,CM,Current,40546,WVI,WVI,WVI+WVI
160,SOMASS-SPROAT-GC SYSTEM,SOMASS RIVER,11485,49.24639679,-124.8198397,Stream Aggregate,930-139262-000000-000000-000000-000000-000000-000000-000000-000000-000000-000000-000000-000000-000000-000000-000000-000000-000000-000000-000000,930-137400-00000-00000-0000-0000-000-000-000-000-000-000,SOUTHWEST VANCOUVER ISLAND,CM-10,CM,Current,3305,WVI,WVI,WVI+WVI
161,SOUTH BAY #1 CREEK,,1301,49.09740319,-125.8327497,Stream,930-283282-000000-000000-000000-000000-000000-000000-000000-000000-000000-000000-000000-000000-000000-000000-000000-000000-000000-000000-000000,930-289400-00000-00000-0000-0000-000-000-000-000-000-000,SOUTHWEST VANCOUVER ISLAND,CM-10,CM,Current,40846,WVI,WVI,WVI+WVI
162,SUCWOA RIVER,SUCWOA RIVER,1371,49.80211475,-126.4964106,Stream,930-538584-000000-000000-000000-000000-000000-000000-000000-000000-000000-000000-000000-000000-000000-000000-000000-000000-000000-000000-000000,930-540600-00000-00000-0000-0000-000-000-000-000-000-000,SOUTHWEST VANCOUVER ISLAND,CM-10,CM,Current,41456,WVI,WVI,WVI+WVI
163,SUGSAW CREEK,SUGSAW CREEK,1250,48.83769727,-125.1061741,Stream,930-103653-000000-000000-000000-000000-000000-000000-000000-000000-000000-000000-000000-000000-000000-000000-000000-000000-000000-000000-000000,930-101400-00000-00000-0000-0000-000-000-000-000-000-000,SOUTHWEST VANCOUVER ISLAND,CM-10,CM,Current,40436,WVI,WVI,WVI+WVI
164,SUTTON MILL CREEK,SUTTON MILL CREEK,1325,49.20556621,-125.8016748,Stream,935-334340-822881-000000-000000-000000-000000-000000-000000-000000-000000-000000-000000-000000-000000-000000-000000-000000-000000-000000-000000,935-302000-82300-00000-0000-0000-000-000-000-000-000-000,SOUTHWEST VANCOUVER ISLAND,CM-10,CM,Current,52296,WVI,WVI,WVI+WVI
165,SYDNEY RIVER,SYDNEY RIVER,1344,49.51495002,-126.2948977,Stream,930-429922-000000-000000-000000-000000-000000-000000-000000-000000-000000-000000-000000-000000-000000-000000-000000-000000-000000-000000-000000,930-433800-00000-00000-0000-0000-000-000-000-000-000-000,SOUTHWEST VANCOUVER ISLAND,CM-10,CM,Current,41206,WVI,WVI,WVI+WVI
166,TAHSIS RIVER,TAHSIS RIVER,1377,49.9237004,-126.6585564,Stream,930-566405-000000-000000-000000-000000-000000-000000-000000-000000-000000-000000-000000-000000-000000-000000-000000-000000-000000-000000-000000,930-569100-00000-00000-0000-0000-000-000-000-000-000-000,SOUTHWEST VANCOUVER ISLAND,CM-10,CM,Current,41516,WVI,WVI,WVI+WVI
167,TAHSISH RIVER,TAHSISH RIVER,1414,50.13979892,-127.1051293,Stream,930-673175-000000-000000-000000-000000-000000-000000-000000-000000-000000-000000-000000-000000-000000-000000-000000-000000-000000-000000-000000,930-673300-00000-00000-0000-0000-000-000-000-000-000-000,SOUTHWEST VANCOUVER ISLAND,CM-10,CM,Current,41881,WVI,WVI,WVI+WVI
168,TATCHU CREEK,TATCHU CREEK,1405,49.88311801,-127.1737435,Stream,930-633195-000000-000000-000000-000000-000000-000000-000000-000000-000000-000000-000000-000000-000000-000000-000000-000000-000000-000000-000000,930-635400-00000-00000-0000-0000-000-000-000-000-000-000,SOUTHWEST VANCOUVER ISLAND,CM-10,CM,Current,41791,WVI,WVI,WVI+WVI
169,THORNTON CREEK,THORNTON CREEK,1297,48.96665653,-125.5628815,Stream,930-236814-000000-000000-000000-000000-000000-000000-000000-000000-000000-000000-000000-000000-000000-000000-000000-000000-000000-000000-000000,930-243600-00000-00000-0000-0000-000-000-000-000-000-000,SOUTHWEST VANCOUVER ISLAND,CM-10,CM,Current,40806,WVI,WVI,WVI+WVI
170,TLUPANA RIVER,TLUPANA RIVER,1367,49.75519989,-126.384843,Stream,930-531334-000000-000000-000000-000000-000000-000000-000000-000000-000000-000000-000000-000000-000000-000000-000000-000000-000000-000000-000000,930-534200-00000-00000-0000-0000-000-000-000-000-000-000,SOUTHWEST VANCOUVER ISLAND,CM-10,CM,Current,41421,WVI,WVI,WVI+WVI
171,TOFINO CREEK,TOFINO CREEK,1316,49.23361189,-125.596265,Stream,930-311568-000000-000000-000000-000000-000000-000000-000000-000000-000000-000000-000000-000000-000000-000000-000000-000000-000000-000000-000000,930-316000-00000-00000-0000-0000-000-000-000-000-000-000,SOUTHWEST VANCOUVER ISLAND,CM-10,CM,Current,52206,WVI,WVI,WVI+WVI
172,TOQUART RIVER,TOQUART RIVER,1288,49.0357038,-125.3574806,Stream,930-223732-000000-000000-000000-000000-000000-000000-000000-000000-000000-000000-000000-000000-000000-000000-000000-000000-000000-000000-000000,930-230500-00000-00000-0000-0000-000-000-000-000-000-000,SOUTHWEST VANCOUVER ISLAND,CM-10,CM,Current,40796,WVI,WVI,WVI+WVI
173,TRANQUIL CREEK,TRANQUIL CREEK,1317,49.20924817,-125.6740736,Stream,930-320497-000000-000000-000000-000000-000000-000000-000000-000000-000000-000000-000000-000000-000000-000000-000000-000000-000000-000000-000000,930-324500-00000-00000-0000-0000-000-000-000-000-000-000,SOUTHWEST VANCOUVER ISLAND,CM-10,CM,Current,52216,WVI,WVI,WVI+WVI
174,TSOWWIN RIVER,TSOWWIN RIVER,1374,49.77825211,-126.6382813,Stream,930-558779-000000-000000-000000-000000-000000-000000-000000-000000-000000-000000-000000-000000-000000-000000-000000-000000-000000-000000-000000,930-561300-00000-00000-0000-0000-000-000-000-000-000-000,SOUTHWEST VANCOUVER ISLAND,CM-10,CM,Current,41486,WVI,WVI,WVI+WVI
175,TWIN RIVERS,,367,48.95056799,-125.4462046,Stream,,,SOUTHWEST VANCOUVER ISLAND,CM-10,CM,Current,45692,WVI,WVI,WVI+WVI
176,TWIN RIVERS EAST CREEK,,1292,48.95154283,-125.4435209,Stream,930-229391-000000-000000-000000-000000-000000-000000-000000-000000-000000-000000-000000-000000-000000-000000-000000-000000-000000-000000-000000,930-236100-00000-00000-0000-0000-000-000-000-000-000-000,SOUTHWEST VANCOUVER ISLAND,CM-10,CM,Current,39566,WVI,WVI,WVI+WVI
177,TWIN RIVERS WEST CREEK,,1293,48.94810479,-125.4464946,Stream,930-229626-000000-000000-000000-000000-000000-000000-000000-000000-000000-000000-000000-000000-000000-000000-000000-000000-000000-000000-000000,930-236300-00000-00000-0000-0000-000-000-000-000-000-000,SOUTHWEST VANCOUVER ISLAND,CM-10,CM,Current,39576,WVI,WVI,WVI+WVI
178,UCHUCK CREEK,UCHUCK CREEK,1274,49.01458835,-125.0512461,Stream,930-164925-000000-000000-000000-000000-000000-000000-000000-000000-000000-000000-000000-000000-000000-000000-000000-000000-000000-000000-000000,930-162900-00000-00000-0000-0000-000-000-000-000-000-000,SOUTHWEST VANCOUVER ISLAND,CM-10,CM,Current,40656,WVI,WVI,WVI+WVI
179,URSUS CREEK,URSUS CREEK,1328,49.38667997,-125.7569994,Stream,930-350962-112867-000000-000000-000000-000000-000000-000000-000000-000000-000000-000000-000000-000000-000000-000000-000000-000000-000000-000000,930-355300-11600-00000-0000-0000-000-000-000-000-000-000,SOUTHWEST VANCOUVER ISLAND,CM-10,CM,Current,52326,WVI,WVI,WVI+WVI
180,USELESS CREEK,,1276,48.99736397,-125.052605,Stream,930-175032-000000-000000-000000-000000-000000-000000-000000-000000-000000-000000-000000-000000-000000-000000-000000-000000-000000-000000-000000,930-180600-00000-00000-0000-0000-000-000-000-000-000-000,SOUTHWEST VANCOUVER ISLAND,CM-10,CM,Current,40676,WVI,WVI,WVI+WVI
181,VERNON BAY CREEK,,1277,49.00818083,-125.1410083,Stream,930-180736-000000-000000-000000-000000-000000-000000-000000-000000-000000-000000-000000-000000-000000-000000-000000-000000-000000-000000-000000,930-186500-00000-00000-0000-0000-000-000-000-000-000-000,SOUTHWEST VANCOUVER ISLAND,CM-10,CM,Current,40686,WVI,WVI,WVI+WVI
182,WALLACE CREEK,,1280,49.05219516,-125.1679072,Stream,930-194787-000000-000000-000000-000000-000000-000000-000000-000000-000000-000000-000000-000000-000000-000000-000000-000000-000000-000000-000000,930-200400-00000-00000-0000-0000-000-000-000-000-000-000,SOUTHWEST VANCOUVER ISLAND,CM-10,CM,Current,40716,WVI,WVI,WVI+WVI
183,WARN BAY CREEK,,1318,49.2643761,-125.7258783,Stream,930-341740-019928-000000-000000-000000-000000-000000-000000-000000-000000-000000-000000-000000-000000-000000-000000-000000-000000-000000-000000,930-345500-00000-00000-0000-0000-000-000-000-000-000-000,SOUTHWEST VANCOUVER ISLAND,CM-10,CM,Current,52226,WVI,WVI,WVI+WVI
184,WATTA CREEK,WATTA CREEK,1340,49.45615583,-126.0288385,Stream,930-407135-000000-000000-000000-000000-000000-000000-000000-000000-000000-000000-000000-000000-000000-000000-000000-000000-000000-000000-000000,930-410500-00000-00000-0000-0000-000-000-000-000-000-000,SOUTHWEST VANCOUVER ISLAND,CM-10,CM,Current,41166,WVI,WVI,WVI+WVI
185,WHITEPINE COVE CREEK,,1333,49.29888039,-125.9484004,Stream,930-380655-000000-000000-000000-000000-000000-000000-000000-000000-000000-000000-000000-000000-000000-000000-000000-000000-000000-000000-000000,930-383700-00000-00000-0000-0000-000-000-000-000-000-000,SOUTHWEST VANCOUVER ISLAND,CM-10,CM,Current,41101,WVI,WVI,WVI+WVI
186,WOMAN ISLAND CREEK,,1315,49.2034057,-125.6035105,Stream,930-310047-000000-000000-000000-000000-000000-000000-000000-000000-000000-000000-000000-000000-000000-000000-000000-000000-000000-000000-000000,930-314400-00000-00000-0000-0000-000-000-000-000-000-000,SOUTHWEST VANCOUVER ISLAND,CM-10,CM,Current,52196,WVI,WVI,WVI+WVI
187,YAKU RIVER,,1416,50.10528899,-127.1577407,Stream,930-675966-000000-000000-000000-000000-000000-000000-000000-000000-000000-000000-000000-000000-000000-000000-000000-000000-000000-000000-000000,930-676000-00000-00000-0000-0000-000-000-000-000-000-000,SOUTHWEST VANCOUVER ISLAND,CM-10,CM,Current,40856,WVI,WVI,WVI+WVI
188,ZEBALLOS RIVER,ZEBALLOS RIVER,1397,49.98185341,-126.8526419,Stream,930-579386-000000-000000-000000-000000-000000-000000-000000-000000-000000-000000-000000-000000-000000-000000-000000-000000-000000-000000-000000,930-582200-00000-00000-0000-0000-000-000-000-000-000-000,SOUTHWEST VANCOUVER ISLAND,CM-10,CM,Current,41711,WVI,WVI,WVI+WVI
189,BEAR CREEK,BEAR CREEK,1479,50.53707073,-127.9745014,Stream,930-936398-000000-000000-000000-000000-000000-000000-000000-000000-000000-000000-000000-000000-000000-000000-000000-000000-000000-000000-000000,930-939900-00000-00000-0000-0000-000-000-000-000-000-000,NORTHWEST VANCOUVER ISLAND,CM-11,CM,Current,42301,WVI,WQCI,WVI+WQCI
190,BISH CREEK,BISH CREEK,1474,50.51260711,-127.7341117,Stream,930-915715-000000-000000-000000-000000-000000-000000-000000-000000-000000-000000-000000-000000-000000-000000-000000-000000-000000-000000-000000,930-918300-00000-00000-0000-0000-000-000-000-000-000-000,NORTHWEST VANCOUVER ISLAND,CM-11,CM,Current,42251,WVI,WQCI,WVI+WQCI
191,BUCK CREEK,BUCK CREEK,1438,50.35026509,-127.8590598,Stream,930-804591-263826-000000-000000-000000-000000-000000-000000-000000-000000-000000-000000-000000-000000-000000-000000-000000-000000-000000-000000,930-805400-31000-00000-0000-0000-000-000-000-000-000-000,NORTHWEST VANCOUVER ISLAND,CM-11,CM,Current,39786,WVI,WQCI,WVI+WQCI
192,CANOE CREEK,CANOE CREEK,1432,50.23086004,-127.7595199,Stream,930-780304-000000-000000-000000-000000-000000-000000-000000-000000-000000-000000-000000-000000-000000-000000-000000-000000-000000-000000-000000,930-780600-00000-00000-0000-0000-000-000-000-000-000-000,NORTHWEST VANCOUVER ISLAND,CM-11,CM,Current,39726,WVI,WQCI,WVI+WQCI
193,CAYEGHLE CREEK,CAYEGHLE CREEK,1450,50.34247015,-127.4398984,Stream,930-844739-000000-000000-000000-000000-000000-000000-000000-000000-000000-000000-000000-000000-000000-000000-000000-000000-000000-000000-000000,930-847100-00000-00000-0000-0000-000-000-000-000-000-000,NORTHWEST VANCOUVER ISLAND,CM-11,CM,Current,39906,WVI,WQCI,WVI+WQCI
194,CAYEGHLE CREEK,CAYEGHLE CREEK,2302,50.34247015,-127.4398984,Stream,930-844739-000000-000000-000000-000000-000000-000000-000000-000000-000000-000000-000000-000000-000000-000000-000000-000000-000000-000000-000000,930-847100-00000-00000-0000-0000-000-000-000-000-000-000,NORTHWEST VANCOUVER ISLAND,CM-11,CM,Current,44790,WVI,WQCI,WVI+WQCI
195,CAYUSE CREEK,CAYUSE CREEK,1449,50.38298842,-127.4692665,Stream,930-842142-000000-000000-000000-000000-000000-000000-000000-000000-000000-000000-000000-000000-000000-000000-000000-000000-000000-000000-000000,930-844100-00000-00000-0000-0000-000-000-000-000-000-000,NORTHWEST VANCOUVER ISLAND,CM-11,CM,Current,39896,WVI,WQCI,WVI+WQCI
196,CAYUSE CREEK,CAYUSE CREEK,1449,50.38298842,-127.4692665,Stream,930-842142-000000-000000-000000-000000-000000-000000-000000-000000-000000-000000-000000-000000-000000-000000-000000-000000-000000-000000-000000,930-844100-00000-00000-0000-0000-000-000-000-000-000-000,NORTHWEST VANCOUVER ISLAND,CM-11,CM,Current,39897,WVI,WQCI,WVI+WQCI
197,CLEAGH CREEK,CLEAGH CREEK,1442,50.47631683,-127.7540089,Stream,930-827016-000000-000000-000000-000000-000000-000000-000000-000000-000000-000000-000000-000000-000000-000000-000000-000000-000000-000000-000000,930-828800-00000-00000-0000-0000-000-000-000-000-000-000,NORTHWEST VANCOUVER ISLAND,CM-11,CM,Current,39826,WVI,WQCI,WVI+WQCI
198,CLESKLAGH CREEK,CLESKLAGH CREEK,1465,50.62891516,-127.8952342,Stream,930-888184-000000-000000-000000-000000-000000-000000-000000-000000-000000-000000-000000-000000-000000-000000-000000-000000-000000-000000-000000,930-890400-00000-00000-0000-0000-000-000-000-000-000-000,NORTHWEST VANCOUVER ISLAND,CM-11,CM,Current,42161,WVI,WQCI,WVI+WQCI
199,COETKWAUS CREEK,COETKWAUS CREEK,1456,50.58249595,-127.4270978,Stream,930-868081-000000-000000-000000-000000-000000-000000-000000-000000-000000-000000-000000-000000-000000-000000-000000-000000-000000-000000-000000,930-870600-00000-00000-0000-0000-000-000-000-000-000-000,NORTHWEST VANCOUVER ISLAND,CM-11,CM,Current,39966,WVI,WQCI,WVI+WQCI
200,COLONIAL CREEK,COLONIAL CREEK,1451,50.33110021,-127.434009,Stream,930-844739-151593-000000-000000-000000-000000-000000-000000-000000-000000-000000-000000-000000-000000-000000-000000-000000-000000-000000-000000,930-847100-01800-00000-0000-0000-000-000-000-000-000-000,NORTHWEST VANCOUVER ISLAND,CM-11,CM,Current,39916,WVI,WQCI,WVI+WQCI
201,CULLEET CREEK,CULLEET CREEK,1439,50.42640112,-127.9194803,Stream,930-817049-000000-000000-000000-000000-000000-000000-000000-000000-000000-000000-000000-000000-000000-000000-000000-000000-000000-000000-000000,930-818200-00000-00000-0000-0000-000-000-000-000-000-000,NORTHWEST VANCOUVER ISLAND,CM-11,CM,Current,39796,WVI,WQCI,WVI+WQCI
202,DENAD CREEK,DENAD CREEK,1483,50.53920852,-128.00382,Stream,930-943692-000000-000000-000000-000000-000000-000000-000000-000000-000000-000000-000000-000000-000000-000000-000000-000000-000000-000000-000000,930-947100-00000-00000-0000-0000-000-000-000-000-000-000,NORTHWEST VANCOUVER ISLAND,CM-11,CM,Current,42341,WVI,WQCI,WVI+WQCI
203,EAST CREEK,EAST CREEK,1433,50.24219084,-127.7238629,Stream,930-782106-000000-000000-000000-000000-000000-000000-000000-000000-000000-000000-000000-000000-000000-000000-000000-000000-000000-000000-000000,930-782400-00000-00000-0000-0000-000-000-000-000-000-000,NORTHWEST VANCOUVER ISLAND,CM-11,CM,Current,39736,WVI,WQCI,WVI+WQCI
204,FISHERMAN RIVER,FISHERMAN RIVER,1491,50.76837796,-128.348283,Stream,930-989942-000000-000000-000000-000000-000000-000000-000000-000000-000000-000000-000000-000000-000000-000000-000000-000000-000000-000000-000000,930-992000-00000-00000-0000-0000-000-000-000-000-000-000,NORTHWEST VANCOUVER ISLAND,CM-11,CM,Current,42421,WVI,WQCI,WVI+WQCI
205,GALATO CREEK,GALATO CREEK,1484,50.53151773,-128.023244,Stream,930-944643-000000-000000-000000-000000-000000-000000-000000-000000-000000-000000-000000-000000-000000-000000-000000-000000-000000-000000-000000,930-948100-00000-00000-0000-0000-000-000-000-000-000-000,NORTHWEST VANCOUVER ISLAND,CM-11,CM,Current,42351,WVI,WQCI,WVI+WQCI
206,GLERUP CREEK,GLERUP CREEK,1468,50.630271,-127.9585047,Stream,930-894548-000000-000000-000000-000000-000000-000000-000000-000000-000000-000000-000000-000000-000000-000000-000000-000000-000000-000000-000000,930-897000-00000-00000-0000-0000-000-000-000-000-000-000,NORTHWEST VANCOUVER ISLAND,CM-11,CM,Current,42191,WVI,WQCI,WVI+WQCI
207,GOODSPEED RIVER,GOODSPEED RIVER,1466,50.64836557,-128.0110636,Stream,930-892634-000000-000000-000000-000000-000000-000000-000000-000000-000000-000000-000000-000000-000000-000000-000000-000000-000000-000000-000000,930-894800-00000-00000-0000-0000-000-000-000-000-000-000,NORTHWEST VANCOUVER ISLAND,CM-11,CM,Current,42171,WVI,WQCI,WVI+WQCI
208,HANSEN CREEK,HANSEN CREEK,1492,50.77893562,-128.3466473,Stream,930-990608-000000-000000-000000-000000-000000-000000-000000-000000-000000-000000-000000-000000-000000-000000-000000-000000-000000-000000-000000,930-992400-00000-00000-0000-0000-000-000-000-000-000-000,NORTHWEST VANCOUVER ISLAND,CM-11,CM,Current,42431,WVI,WQCI,WVI+WQCI
209,HATHAWAY CREEK,HATHAWAY CREEK,1470,50.58660903,-127.76698,Stream,930-901428-000000-000000-000000-000000-000000-000000-000000-000000-000000-000000-000000-000000-000000-000000-000000-000000-000000-000000-000000,930-903800-00000-00000-0000-0000-000-000-000-000-000-000,NORTHWEST VANCOUVER ISLAND,CM-11,CM,Current,42211,WVI,WQCI,WVI+WQCI
210,HAWISNAKWI CREEK,HAWISNAKWI CREEK,1473,50.51925248,-127.7012638,Stream,930-914760-000000-000000-000000-000000-000000-000000-000000-000000-000000-000000-000000-000000-000000-000000-000000-000000-000000-000000-000000,930-917300-00000-00000-0000-0000-000-000-000-000-000-000,NORTHWEST VANCOUVER ISLAND,CM-11,CM,Current,42241,WVI,WQCI,WVI+WQCI
211,HEAD CREEK,HEAD CREEK,1436,50.29455069,-127.7183709,Stream,930-797582-000000-000000-000000-000000-000000-000000-000000-000000-000000-000000-000000-000000-000000-000000-000000-000000-000000-000000-000000,930-798500-00000-00000-0000-0000-000-000-000-000-000-000,NORTHWEST VANCOUVER ISLAND,CM-11,CM,Current,39766,WVI,WQCI,WVI+WQCI
212,HUSHAMU CREEK,HUSHAMU CREEK,1464,50.60685559,-127.787777,Stream,930-884920-000000-000000-000000-000000-000000-000000-000000-000000-000000-000000-000000-000000-000000-000000-000000-000000-000000-000000-000000,930-886900-00000-00000-0000-0000-000-000-000-000-000-000,NORTHWEST VANCOUVER ISLAND,CM-11,CM,Current,42151,WVI,WQCI,WVI+WQCI
213,JIM'S CREEK,,1435,50.30346765,-127.8049153,Stream,930-794126-000000-000000-000000-000000-000000-000000-000000-000000-000000-000000-000000-000000-000000-000000-000000-000000-000000-000000-000000,930-795100-00000-00000-0000-0000-000-000-000-000-000-000,NORTHWEST VANCOUVER ISLAND,CM-11,CM,Current,39756,WVI,WQCI,WVI+WQCI
214,JOHNNY CREEK,,1469,50.61370602,-127.8688602,Stream,930-897767-000000-000000-000000-000000-000000-000000-000000-000000-000000-000000-000000-000000-000000-000000-000000-000000-000000-000000-000000,930-900200-00000-00000-0000-0000-000-000-000-000-000-000,NORTHWEST VANCOUVER ISLAND,CM-11,CM,Current,42201,WVI,WQCI,WVI+WQCI
215,JULIAN CREEK,JULIAN CREEK,1446,50.48291663,-127.6070697,Stream,930-833460-000000-000000-000000-000000-000000-000000-000000-000000-000000-000000-000000-000000-000000-000000-000000-000000-000000-000000-000000,930-835300-00000-00000-0000-0000-000-000-000-000-000-000,NORTHWEST VANCOUVER ISLAND,CM-11,CM,Current,39866,WVI,WQCI,WVI+WQCI
216,KEITH RIVER,KEITH RIVER,1437,50.33742941,-127.8710644,Stream,930-804591-000000-000000-000000-000000-000000-000000-000000-000000-000000-000000-000000-000000-000000-000000-000000-000000-000000-000000-000000,930-805400-00000-00000-0000-0000-000-000-000-000-000-000,NORTHWEST VANCOUVER ISLAND,CM-11,CM,Current,39776,WVI,WQCI,WVI+WQCI
217,KEWQUODIE CREEK,KEWQUODIE CREEK,1443,50.48273065,-127.7134908,Stream,930-828422-000000-000000-000000-000000-000000-000000-000000-000000-000000-000000-000000-000000-000000-000000-000000-000000-000000-000000-000000,930-830300-00000-00000-0000-0000-000-000-000-000-000-000,NORTHWEST VANCOUVER ISLAND,CM-11,CM,Current,39836,WVI,WQCI,WVI+WQCI
218,KINGFISHER CREEK,KINGFISHER CREEK,1431,50.19959225,-127.7815957,Stream,930-776310-065918-000000-000000-000000-000000-000000-000000-000000-000000-000000-000000-000000-000000-000000-000000-000000-000000-000000-000000,930-776900-00000-00000-0000-0000-000-000-000-000-000-000,NORTHWEST VANCOUVER ISLAND,CM-11,CM,Current,39716,WVI,WQCI,WVI+WQCI
219,KLASKISH RIVER,KLASKISH RIVER,1434,50.26401136,-127.719667,Stream,930-783609-000000-000000-000000-000000-000000-000000-000000-000000-000000-000000-000000-000000-000000-000000-000000-000000-000000-000000-000000,930-784100-00000-00000-0000-0000-000-000-000-000-000-000,NORTHWEST VANCOUVER ISLAND,CM-11,CM,Current,39746,WVI,WQCI,WVI+WQCI
220,KLAYINA CREEK,KLAYINA CREEK,1482,50.54453216,-127.9782903,Stream,930-942676-000000-000000-000000-000000-000000-000000-000000-000000-000000-000000-000000-000000-000000-000000-000000-000000-000000-000000-000000,930-946100-00000-00000-0000-0000-000-000-000-000-000-000,NORTHWEST VANCOUVER ISLAND,CM-11,CM,Current,42331,WVI,WQCI,WVI+WQCI
221,KLAYINA CREEK,KLAYINA CREEK,1482,50.54453216,-127.9782903,Stream,930-942676-000000-000000-000000-000000-000000-000000-000000-000000-000000-000000-000000-000000-000000-000000-000000-000000-000000-000000-000000,930-946100-00000-00000-0000-0000-000-000-000-000-000-000,NORTHWEST VANCOUVER ISLAND,CM-11,CM,Current,42332,WVI,WQCI,WVI+WQCI
222,KLOOTCHLIMMIS CREEK,KLOOTCHLIMMIS CREEK,1444,50.48456833,-127.6669167,Stream,930-830118-000000-000000-000000-000000-000000-000000-000000-000000-000000-000000-000000-000000-000000-000000-000000-000000-000000-000000-000000,930-832000-00000-00000-0000-0000-000-000-000-000-000-000,NORTHWEST VANCOUVER ISLAND,CM-11,CM,Current,39846,WVI,WQCI,WVI+WQCI
223,KOPRINO RIVER,KOPRINO RIVER,1475,50.50842989,-127.8488694,Stream,930-923008-000000-000000-000000-000000-000000-000000-000000-000000-000000-000000-000000-000000-000000-000000-000000-000000-000000-000000-000000,930-925900-00000-00000-0000-0000-000-000-000-000-000-000,NORTHWEST VANCOUVER ISLAND,CM-11,CM,Current,42261,WVI,WQCI,WVI+WQCI
224,KWATLEO CREEK,KWATLEO CREEK,1486,50.5047255,-128.0942917,Stream,930-949046-000000-000000-000000-000000-000000-000000-000000-000000-000000-000000-000000-000000-000000-000000-000000-000000-000000-000000-000000,930-952400-00000-00000-0000-0000-000-000-000-000-000-000,NORTHWEST VANCOUVER ISLAND,CM-11,CM,Current,42371,WVI,WQCI,WVI+WQCI
225,KWOKWESTA CREEK,KWOKWESTA CREEK,1454,50.52455768,-127.561968,Stream,930-859111-000000-000000-000000-000000-000000-000000-000000-000000-000000-000000-000000-000000-000000-000000-000000-000000-000000-000000-000000,930-862200-00000-00000-0000-0000-000-000-000-000-000-000,NORTHWEST VANCOUVER ISLAND,CM-11,CM,Current,39946,WVI,WQCI,WVI+WQCI
226,LEESON CREEK,LEESON CREEK,1485,50.50675926,-128.0819274,Stream,930-948514-000000-000000-000000-000000-000000-000000-000000-000000-000000-000000-000000-000000-000000-000000-000000-000000-000000-000000-000000,930-951900-00000-00000-0000-0000-000-000-000-000-000-000,NORTHWEST VANCOUVER ISLAND,CM-11,CM,Current,42361,WVI,WQCI,WVI+WQCI
227,LEWIS CREEK,,1471,50.5848829,-127.7008427,Stream,930-903396-000000-000000-000000-000000-000000-000000-000000-000000-000000-000000-000000-000000-000000-000000-000000-000000-000000-000000-000000,930-905900-00000-00000-0000-0000-000-000-000-000-000-000,NORTHWEST VANCOUVER ISLAND,CM-11,CM,Current,42221,WVI,WQCI,WVI+WQCI
228,LOWER AHWHICHAOLTO CREEK,LOWER AHWHICHAOLTO CREEK,1481,50.54607031,-127.9510316,Stream,930-941462-000000-000000-000000-000000-000000-000000-000000-000000-000000-000000-000000-000000-000000-000000-000000-000000-000000-000000-000000,930-944900-00000-00000-0000-0000-000-000-000-000-000-000,NORTHWEST VANCOUVER ISLAND,CM-11,CM,Current,42321,WVI,WQCI,WVI+WQCI
229,MACJACK RIVER,MACJACK RIVER,1487,50.59119166,-128.228758,Stream,930-968384-000000-000000-000000-000000-000000-000000-000000-000000-000000-000000-000000-000000-000000-000000-000000-000000-000000-000000-000000,930-970700-00000-00000-0000-0000-000-000-000-000-000-000,NORTHWEST VANCOUVER ISLAND,CM-11,CM,Current,42381,WVI,WQCI,WVI+WQCI
230,MAHATTA CREEK,MAHATTA CREEK,1440,50.45792818,-127.8652593,Stream,930-822430-000000-000000-000000-000000-000000-000000-000000-000000-000000-000000-000000-000000-000000-000000-000000-000000-000000-000000-000000,930-823900-00000-00000-0000-0000-000-000-000-000-000-000,NORTHWEST VANCOUVER ISLAND,CM-11,CM,Current,39806,WVI,WQCI,WVI+WQCI
231,MAHWHIECLAS CREEK,MAHWHIECLAS CREEK,1447,50.48085296,-127.5829012,Stream,930-834761-000000-000000-000000-000000-000000-000000-000000-000000-000000-000000-000000-000000-000000-000000-000000-000000-000000-000000-000000,930-836600-00000-00000-0000-0000-000-000-000-000-000-000,NORTHWEST VANCOUVER ISLAND,CM-11,CM,Current,39876,WVI,WQCI,WVI+WQCI
232,MARBLE RIVER,MARBLE RIVER,1455,50.53374517,-127.5095505,Stream,930-862497-000000-000000-000000-000000-000000-000000-000000-000000-000000-000000-000000-000000-000000-000000-000000-000000-000000-000000-000000,930-865200-00000-00000-0000-0000-000-000-000-000-000-000,NORTHWEST VANCOUVER ISLAND,CM-11,CM,Current,39956,WVI,WQCI,WVI+WQCI
233,MCNIFFE CREEK,MCNIFFE CREEK,1476,50.50516275,-127.8800153,Stream,930-924461-075949-000000-000000-000000-000000-000000-000000-000000-000000-000000-000000-000000-000000-000000-000000-000000-000000-000000-000000,930-927400-00000-00000-0000-0000-000-000-000-000-000-000,NORTHWEST VANCOUVER ISLAND,CM-11,CM,Current,42271,WVI,WQCI,WVI+WQCI
234,MONKEY CREEK,MONKEY CREEK,1441,50.45672682,-127.8087768,Stream,930-824540-000000-000000-000000-000000-000000-000000-000000-000000-000000-000000-000000-000000-000000-000000-000000-000000-000000-000000-000000,930-826300-00000-00000-0000-0000-000-000-000-000-000-000,NORTHWEST VANCOUVER ISLAND,CM-11,CM,Current,39816,WVI,WQCI,WVI+WQCI
235,MONTGOMERY CREEK,MONTGOMERY CREEK,1477,50.48134284,-128.0124963,Stream,930-932476-000000-000000-000000-000000-000000-000000-000000-000000-000000-000000-000000-000000-000000-000000-000000-000000-000000-000000-000000,930-936000-00000-00000-0000-0000-000-000-000-000-000-000,NORTHWEST VANCOUVER ISLAND,CM-11,CM,Current,42281,WVI,WQCI,WVI+WQCI
236,NEQUILTPAALIS CREEK,NEQUILTPAALIS CREEK,1453,50.44275394,-127.5003523,Stream,930-850191-000000-000000-000000-000000-000000-000000-000000-000000-000000-000000-000000-000000-000000-000000-000000-000000-000000-000000-000000,930-853100-00000-00000-0000-0000-000-000-000-000-000-000,NORTHWEST VANCOUVER ISLAND,CM-11,CM,Current,39936,WVI,WQCI,WVI+WQCI
237,NUKNIMISH CREEK,NUKNIMISH CREEK,1461,50.60493719,-127.6501083,Stream,930-880346-000000-000000-000000-000000-000000-000000-000000-000000-000000-000000-000000-000000-000000-000000-000000-000000-000000-000000-000000,930-882400-00000-00000-0000-0000-000-000-000-000-000-000,NORTHWEST VANCOUVER ISLAND,CM-11,CM,Current,42121,WVI,WQCI,WVI+WQCI
238,PEGATTEM CREEK,PEGATTEM CREEK,1467,50.63796172,-127.9861383,Stream,930-893527-000000-000000-000000-000000-000000-000000-000000-000000-000000-000000-000000-000000-000000-000000-000000-000000-000000-000000-000000,930-896100-00000-00000-0000-0000-000-000-000-000-000-000,NORTHWEST VANCOUVER ISLAND,CM-11,CM,Current,42181,WVI,WQCI,WVI+WQCI
239,QUASHTIN CREEK,QUASHTIN CREEK,1478,50.51000647,-128.019105,Stream,930-934138-000000-000000-000000-000000-000000-000000-000000-000000-000000-000000-000000-000000-000000-000000-000000-000000-000000-000000-000000,930-937700-00000-00000-0000-0000-000-000-000-000-000-000,NORTHWEST VANCOUVER ISLAND,CM-11,CM,Current,42291,WVI,WQCI,WVI+WQCI
240,RUPERT CREEK,RUPERT CREEK,1458,50.58517204,-127.4082478,Stream,930-868633-051978-000000-000000-000000-000000-000000-000000-000000-000000-000000-000000-000000-000000-000000-000000-000000-000000-000000-000000,930-871100-05100-00000-0000-0000-000-000-000-000-000-000,NORTHWEST VANCOUVER ISLAND,CM-11,CM,Current,42091,WVI,WQCI,WVI+WQCI
241,RUSSELL CREEK,RUSSELL CREEK,1490,50.68817503,-128.3447096,Stream,930-981608-000000-000000-000000-000000-000000-000000-000000-000000-000000-000000-000000-000000-000000-000000-000000-000000-000000-000000-000000,930-984200-00000-00000-0000-0000-000-000-000-000-000-000,NORTHWEST VANCOUVER ISLAND,CM-11,CM,Current,48074908,WVI,WQCI,WVI+WQCI
242,SAN JOSEF RIVER,SAN JOSEF RIVER,1489,50.67306987,-128.2724037,Stream,930-977264-000000-000000-000000-000000-000000-000000-000000-000000-000000-000000-000000-000000-000000-000000-000000-000000-000000-000000-000000,930-979400-00000-00000-0000-0000-000-000-000-000-000-000,NORTHWEST VANCOUVER ISLAND,CM-11,CM,Current,42401,WVI,WQCI,WVI+WQCI
243,SKIDINE CREEK,SKIDINE CREEK,1445,50.48107086,-127.623559,Stream,930-831454-000000-000000-000000-000000-000000-000000-000000-000000-000000-000000-000000-000000-000000-000000-000000-000000-000000-000000-000000,930-833300-00000-00000-0000-0000-000-000-000-000-000-000,NORTHWEST VANCOUVER ISLAND,CM-11,CM,Current,39856,WVI,WQCI,WVI+WQCI
244,STEPHENS CREEK,STEPHENS CREEK,1460,50.60215145,-127.5718419,Stream,930-877495-000000-000000-000000-000000-000000-000000-000000-000000-000000-000000-000000-000000-000000-000000-000000-000000-000000-000000-000000,930-879700-00000-00000-0000-0000-000-000-000-000-000-000,NORTHWEST VANCOUVER ISLAND,CM-11,CM,Current,42111,WVI,WQCI,WVI+WQCI
245,TEETA CREEK,TEETA CREEK,1448,50.40337313,-127.5020173,Stream,930-840227-000000-000000-000000-000000-000000-000000-000000-000000-000000-000000-000000-000000-000000-000000-000000-000000-000000-000000-000000,930-842200-00000-00000-0000-0000-000-000-000-000-000-000,NORTHWEST VANCOUVER ISLAND,CM-11,CM,Current,39886,WVI,WQCI,WVI+WQCI
246,UPPER AHWHICHAOLTO CREEK,UPPER AHWHICHAOLTO CREEK,1480,50.52837878,-127.9164049,Stream,930-938700-000000-000000-000000-000000-000000-000000-000000-000000-000000-000000-000000-000000-000000-000000-000000-000000-000000-000000-000000,930-942100-00000-00000-0000-0000-000-000-000-000-000-000,NORTHWEST VANCOUVER ISLAND,CM-11,CM,Current,42311,WVI,WQCI,WVI+WQCI
247,UTLUH CREEK,UTLUH CREEK,1452,50.31653339,-127.4124327,Stream,930-844739-418251-000000-000000-000000-000000-000000-000000-000000-000000-000000-000000-000000-000000-000000-000000-000000-000000-000000-000000,930-847100-31900-00000-0000-0000-000-000-000-000-000-000,NORTHWEST VANCOUVER ISLAND,CM-11,CM,Current,39926,WVI,WQCI,WVI+WQCI
248,WANOKANA CREEK,WANOKANA CREEK,1462,50.6036693,-127.712075,Stream,930-882459-000000-000000-000000-000000-000000-000000-000000-000000-000000-000000-000000-000000-000000-000000-000000-000000-000000-000000-000000,930-884200-00000-00000-0000-0000-000-000-000-000-000-000,NORTHWEST VANCOUVER ISLAND,CM-11,CM,Current,42131,WVI,WQCI,WVI+WQCI
249,WASHLAWLIS CREEK,WASHLAWLIS CREEK,1459,50.60455553,-127.420284,Stream,930-869842-000000-000000-000000-000000-000000-000000-000000-000000-000000-000000-000000-000000-000000-000000-000000-000000-000000-000000-000000,930-872200-00000-00000-0000-0000-000-000-000-000-000-000,NORTHWEST VANCOUVER ISLAND,CM-11,CM,Current,42101,WVI,WQCI,WVI+WQCI
250,WAUKWAAS CREEK,WAUKWAAS CREEK,1457,50.58816793,-127.4183402,Stream,930-868633-000000-000000-000000-000000-000000-000000-000000-000000-000000-000000-000000-000000-000000-000000-000000-000000-000000-000000-000000,930-871100-00000-00000-0000-0000-000-000-000-000-000-000,NORTHWEST VANCOUVER ISLAND,CM-11,CM,Current,41081,WVI,WQCI,WVI+WQCI
251,YOUGHPAN CREEK,YOUGHPAN CREEK,1463,50.60423077,-127.7555093,Stream,930-883864-000000-000000-000000-000000-000000-000000-000000-000000-000000-000000-000000-000000-000000-000000-000000-000000-000000-000000-000000,930-885900-00000-00000-0000-0000-000-000-000-000-000-000,NORTHWEST VANCOUVER ISLAND,CM-11,CM,Current,42141,WVI,WQCI,WVI+WQCI
252,ALLARD CREEK,ALLARD CREEK,930,51.46339655,-127.3264523,Stream,910-100320-000000-000000-000000-000000-000000-000000-000000-000000-000000-000000-000000-000000-000000-000000-000000-000000-000000-000000-000000,910-110700-00000-00000-0000-0000-000-000-000-000-000-000,SMITH INLET,CM-12,CM,Current,49772,RSI,HStr,RSI+HStr
253,DOCEE RIVER,,914,51.23292088,-127.3386768,Stream,910-020688-000000-000000-000000-000000-000000-000000-000000-000000-000000-000000-000000-000000-000000-000000-000000-000000-000000-000000-000000,910-025600-00000-00000-0000-0000-000-000-000-000-000-000,SMITH INLET,CM-12,CM,Current,49692,RSI,HStr,RSI+HStr
254,DRANEY CREEK,DRANEY CREEK,928,51.40710041,-127.2524024,Stream,910-097011-010815-000000-000000-000000-000000-000000-000000-000000-000000-000000-000000-000000-000000-000000-000000-000000-000000-000000-000000,910-107200-00000-00000-0000-0000-000-000-000-000-000-000,SMITH INLET,CM-12,CM,Current,49762,RSI,HStr,RSI+HStr
255,HOGAN CREEK,HOGAN CREEK,926,51.37703672,-127.6613993,Stream,910-081796-000000-000000-000000-000000-000000-000000-000000-000000-000000-000000-000000-000000-000000-000000-000000-000000-000000-000000-000000,910-091400-00000-00000-0000-0000-000-000-000-000-000-000,SMITH INLET,CM-12,CM,Current,49752,HecLow,HStr,HecLow+HStr
256,JOHNSTON CREEK,JOHNSTON CREEK,931,51.49213707,-127.5390891,Stream,910-108491-000000-000000-000000-000000-000000-000000-000000-000000-000000-000000-000000-000000-000000-000000-000000-000000-000000-000000-000000,910-118900-00000-00000-0000-0000-000-000-000-000-000-000,SMITH INLET,CM-12,CM,Current,49777,HecLow,HStr,HecLow+HStr
257,LOCKHART GORDON CREEK,LOCKHART GORDON CREEK,929,51.4080484,-127.2520499,Stream,910-097011-000000-000000-000000-000000-000000-000000-000000-000000-000000-000000-000000-000000-000000-000000-000000-000000-000000-000000-000000,910-107400-00000-00000-0000-0000-000-000-000-000-000-000,SMITH INLET,CM-12,CM,Current,49767,RSI,HStr,RSI+HStr
258,NEKITE RIVER,NEKITE RIVER,918,51.39979138,-127.1173184,Stream,910-032188-000000-000000-000000-000000-000000-000000-000000-000000-000000-000000-000000-000000-000000-000000-000000-000000-000000-000000-000000,910-041700-00000-00000-0000-0000-000-000-000-000-000-000,SMITH INLET,CM-12,CM,Current,49712,RSI,HStr,RSI+HStr
259,NEKITE SPAWNING CHANNEL,,372,51.43633518,-127.084356,Artificial Channel,910-032188-000000-000000-000000-000000-000000-000000-000000-000000-000000-000000-000000-000000-000000-000000-000000-000000-000000-000000-000000,910-041700-00000-00000-0000-0000-000-000-000-000-000-000,SMITH INLET,CM-12,CM,Current,45712,RSI,HStr,RSI+HStr
260,PERRY CREEK,,390,51.44194367,-127.3864229,Stream,910-102198-000000-000000-000000-000000-000000-000000-000000-000000-000000-000000-000000-000000-000000-000000-000000-000000-000000-000000-000000,910-112500-00000-00000-0000-0000-000-000-000-000-000-000,SMITH INLET,CM-12,CM,Current,45830,HecLow,HStr,HecLow+HStr
261,TAKUSH RIVER,TAKUSH RIVER,913,51.26459397,-127.599035,Stream,910-012622-000000-000000-000000-000000-000000-000000-000000-000000-000000-000000-000000-000000-000000-000000-000000-000000-000000-000000-000000,910-012400-00000-00000-0000-0000-000-000-000-000-000-000,SMITH INLET,CM-12,CM,Current,49687,HecLow,HStr,HecLow+HStr
262,WALKUM CREEK,WALKUM CREEK,917,51.35257315,-127.0564565,Stream,910-029420-000000-000000-000000-000000-000000-000000-000000-000000-000000-000000-000000-000000-000000-000000-000000-000000-000000-000000-000000,910-038700-00000-00000-0000-0000-000-000-000-000-000-000,SMITH INLET,CM-12,CM,Current,49707,RSI,HStr,RSI+HStr
263,AMBACK CREEK,AMBACK CREEK,937,51.69747537,-127.0429135,Stream,910-118506-218911-000000-000000-000000-000000-000000-000000-000000-000000-000000-000000-000000-000000-000000-000000-000000-000000-000000-000000,910-128800-22600-00000-0000-0000-000-000-000-000-000-000,RIVERS INLET,CM-13,CM,Current,51613,RSI,HStr,RSI+HStr
264,ASHLULM CREEK,ASHLULM CREEK,939,51.68864836,-126.8992208,Stream,910-118506-396333-000000-000000-000000-000000-000000-000000-000000-000000-000000-000000-000000-000000-000000-000000-000000-000000-000000-000000,910-128800-39700-00000-0000-0000-000-000-000-000-000-000,RIVERS INLET,CM-13,CM,Current,51623,RSI,HStr,RSI+HStr
265,CHUCKWALLA RIVER,CHUCKWALLA RIVER,948,51.72803738,-127.3407762,Stream,910-121016-018183-000000-000000-000000-000000-000000-000000-000000-000000-000000-000000-000000-000000-000000-000000-000000-000000-000000-000000,910-130900-04100-00000-0000-0000-000-000-000-000-000-000,RIVERS INLET,CM-13,CM,Current,51668,RSI,HStr,RSI+HStr
266,CLYAK RIVER,CLYAK RIVER,949,51.86827809,-127.351804,Stream,910-131496-000000-000000-000000-000000-000000-000000-000000-000000-000000-000000-000000-000000-000000-000000-000000-000000-000000-000000-000000,910-141200-00000-00000-0000-0000-000-000-000-000-000-000,RIVERS INLET,CM-13,CM,Current,51673,RSI,HStr,RSI+HStr
267,DALLERY CREEK,DALLERY CREEK,938,51.67342759,-127.0432978,Stream,910-118506-230455-000000-000000-000000-000000-000000-000000-000000-000000-000000-000000-000000-000000-000000-000000-000000-000000-000000-000000,910-128800-23700-00000-0000-0000-000-000-000-000-000-000,RIVERS INLET,CM-13,CM,Current,51618,RSI,HStr,RSI+HStr
268,DORIS CREEK,DORIS CREEK,954,51.70957823,-127.5921895,Stream,910-141938-000000-000000-000000-000000-000000-000000-000000-000000-000000-000000-000000-000000-000000-000000-000000-000000-000000-000000-000000,910-151500-00000-00000-0000-0000-000-000-000-000-000-000,RIVERS INLET,CM-13,CM,Current,51698,HecLow,HStr,HecLow+HStr
269,GENESEE CREEK,GENESEE CREEK,942,51.66532816,-126.6705171,Stream,910-118506-624591-000000-000000-000000-000000-000000-000000-000000-000000-000000-000000-000000-000000-000000-000000-000000-000000-000000-000000,910-128800-63100-00000-0000-0000-000-000-000-000-000-000,RIVERS INLET,CM-13,CM,Current,51638,RSI,HStr,RSI+HStr
270,KILBELLA RIVER,KILBELLA RIVER,947,51.71917601,-127.3479482,Stream,910-121016-000000-000000-000000-000000-000000-000000-000000-000000-000000-000000-000000-000000-000000-000000-000000-000000-000000-000000-000000,910-130900-00000-00000-0000-0000-000-000-000-000-000-000,RIVERS INLET,CM-13,CM,Current,51663,RSI,HStr,RSI+HStr
271,MACHMELL RIVER,MACHMELL RIVER,940,51.65442207,-126.6995611,Stream,910-118506-595530-000000-000000-000000-000000-000000-000000-000000-000000-000000-000000-000000-000000-000000-000000-000000-000000-000000-000000,910-128800-60200-00000-0000-0000-000-000-000-000-000-000,RIVERS INLET,CM-13,CM,Current,51628,RSI,HStr,RSI+HStr
272,MACNAIR CREEK,MACNAIR CREEK,953,51.71238553,-127.5614832,Stream,910-141302-000000-000000-000000-000000-000000-000000-000000-000000-000000-000000-000000-000000-000000-000000-000000-000000-000000-000000-000000,910-150900-00000-00000-0000-0000-000-000-000-000-000-000,RIVERS INLET,CM-13,CM,Current,51693,HecLow,HStr,HecLow+HStr
273,MILTON RIVER,MILTON RIVER,952,51.78583897,-127.4472242,Stream,910-136597-000000-000000-000000-000000-000000-000000-000000-000000-000000-000000-000000-000000-000000-000000-000000-000000-000000-000000-000000,910-146000-00000-00000-0000-0000-000-000-000-000-000-000,RIVERS INLET,CM-13,CM,Current,51688,RSI,HStr,RSI+HStr
274,NEECHANZ RIVER,NEECHANZ RIVER,941,51.64604864,-126.6870326,Stream,910-118506-595530-029258-000000-000000-000000-000000-000000-000000-000000-000000-000000-000000-000000-000000-000000-000000-000000-000000-000000,910-128800-60200-01500-0000-0000-000-000-000-000-000-000,RIVERS INLET,CM-13,CM,Current,51633,RSI,HStr,RSI+HStr
275,NICKNAQUEET RIVER,NICKNAQUEET RIVER,934,51.67169998,-127.2616307,Stream,910-118214-000000-000000-000000-000000-000000-000000-000000-000000-000000-000000-000000-000000-000000-000000-000000-000000-000000-000000-000000,910-128500-00000-00000-0000-0000-000-000-000-000-000-000,RIVERS INLET,CM-13,CM,Current,49792,RSI,HStr,RSI+HStr
276,NIEL CREEK,NIEL CREEK,951,51.90526891,-127.3531077,Stream,910-131496-094120-056839-000000-000000-000000-000000-000000-000000-000000-000000-000000-000000-000000-000000-000000-000000-000000-000000-000000,910-141200-09800-04300-0000-0000-000-000-000-000-000-000,RIVERS INLET,CM-13,CM,Current,51683,RSI,HStr,RSI+HStr
277,SHEEMAHANT RIVER,SHEEMAHANT RIVER,943,51.74014207,-126.6221249,Stream,910-118506-788425-000000-000000-000000-000000-000000-000000-000000-000000-000000-000000-000000-000000-000000-000000-000000-000000-000000-000000,910-128800-79800-00000-0000-0000-000-000-000-000-000-000,RIVERS INLET,CM-13,CM,Current,51643,RSI,HStr,RSI+HStr
278,WASHWASH RIVER,WASHWASH RIVER,945,51.85468047,-126.665259,Stream,910-118506-998262-041556-000000-000000-000000-000000-000000-000000-000000-000000-000000-000000-000000-000000-000000-000000-000000-000000-000000,910-128800-99500-03400-0000-0000-000-000-000-000-000-000,RIVERS INLET,CM-13,CM,Current,51653,RSI,HStr,RSI+HStr
279,YOUNG RIVER,YOUNG RIVER,950,51.8983031,-127.3507459,Stream,910-131496-094120-000000-000000-000000-000000-000000-000000-000000-000000-000000-000000-000000-000000-000000-000000-000000-000000-000000-000000,910-141200-09800-00000-0000-0000-000-000-000-000-000-000,RIVERS INLET,CM-13,CM,Current,51678,RSI,HStr,RSI+HStr
280,WANNOCK RIVER,WANNOCK RIVER,935,51.6791075,-127.2505923,Stream,910-118506-000000-000000-000000-000000-000000-000000-000000-000000-000000-000000-000000-000000-000000-000000-000000-000000-000000-000000-000000,910-128800-00000-00000-0000-0000-000-000-000-000-000-000,WANNOCK,CM-14,CM,Current,50458,RSI,HStr,RSI+HStr
281,ADA COVE CREEK,,2683,52.05553715,-128.0505496,Stream,915-553298-730791-000000-000000-000000-000000-000000-000000-000000-000000-000000-000000-000000-000000-000000-000000-000000-000000-000000-000000,915-213000-71100-00000-0000-0000-000-000-000-000-000-000,SPILLER-FITZ HUGH-BURKE,CM-15,CM,Current,3154,HecLow,HStr,HecLow+HStr
282,BEALE'S LAGOON CREEK,,1803,52.18328305,-127.9827278,Stream,915-583813-072602-079028-000000-000000-000000-000000-000000-000000-000000-000000-000000-000000-000000-000000-000000-000000-000000-000000-000000,915-233500-13600-00000-0000-0000-000-000-000-000-000-000,SPILLER-FITZ HUGH-BURKE,CM-15,CM,Current,43753,HecLow,HStr,HecLow+HStr
283,BEAVER CREEK,,955,51.53727879,-127.7475024,Stream,910-159520-000000-000000-000000-000000-000000-000000-000000-000000-000000-000000-000000-000000-000000-000000-000000-000000-000000-000000-000000,910-168500-00000-00000-0000-0000-000-000-000-000-000-000,SPILLER-FITZ HUGH-BURKE,CM-15,CM,Current,51703,HecLow,HStr,HecLow+HStr
284,BULLOCK CHANNEL #2 CREEK,,2689,52.40267964,-128.0771435,Stream,915-593194-636361-000000-000000-000000-000000-000000-000000-000000-000000-000000-000000-000000-000000-000000-000000-000000-000000-000000-000000,915-381700-55200-00000-0000-0000-000-000-000-000-000-000,SPILLER-FITZ HUGH-BURKE,CM-15,CM,Current,3423,HecLow,HStr,HecLow+HStr
285,BULLOCK CHANNEL #3 NORTH CREEK,,2690,52.3655676,-128.0682538,Stream,915-593194-703380-000000-000000-000000-000000-000000-000000-000000-000000-000000-000000-000000-000000-000000-000000-000000-000000-000000-000000,915-381700-61600-00000-0000-0000-000-000-000-000-000-000,SPILLER-FITZ HUGH-BURKE,CM-15,CM,Current,3425,HecLow,HStr,HecLow+HStr
286,BULLOCK CHANNEL #3 SOUTH CREEK,,2691,52.31944031,-128.0630307,Stream,915-593194-820389-000000-000000-000000-000000-000000-000000-000000-000000-000000-000000-000000-000000-000000-000000-000000-000000-000000-000000,915-381700-73700-00000-0000-0000-000-000-000-000-000-000,SPILLER-FITZ HUGH-BURKE,CM-15,CM,Current,3427,HecLow,HStr,HecLow+HStr
287,BULLOCK CHANNEL CREEKS,,995,52.3908459,-128.0745412,Stream Aggregate,,,SPILLER-FITZ HUGH-BURKE,CM-15,CM,Current,51908,HecLow,HStr,HecLow+HStr
288,BULLOCK CHANNEL EAST CREEK,,2688,52.37990084,-128.0593439,Stream,910-412201-000000-000000-000000-000000-000000-000000-000000-000000-000000-000000-000000-000000-000000-000000-000000-000000-000000-000000-000000,910-424900-00000-00000-0000-0000-000-000-000-000-000-000,SPILLER-FITZ HUGH-BURKE,CM-15,CM,Current,3421,HecLow,HStr,HecLow+HStr
289,CASCADE RIVER,,983,52.60898926,-127.6268483,Stream,910-336010-000000-000000-000000-000000-000000-000000-000000-000000-000000-000000-000000-000000-000000-000000-000000-000000-000000-000000-000000,910-351200-12100-00000-0000-0000-000-000-000-000-000-000,SPILLER-FITZ HUGH-BURKE,CM-15,CM,Current,51848,NC,HStr,NC+HStr
290,CHAMISS CREEK,,998,52.48799549,-128.1081292,Stream,910-435723-000000-000000-000000-000000-000000-000000-000000-000000-000000-000000-000000-000000-000000-000000-000000-000000-000000-000000-000000,910-448100-00000-00000-0000-0000-000-000-000-000-000-000,SPILLER-FITZ HUGH-BURKE,CM-15,CM,Current,51923,HecLow,HStr,HecLow+HStr
291,CHOKE PASS CREEKS (3),,7990621,52.36104003,-128.0651776,Stream Aggregate,,,SPILLER-FITZ HUGH-BURKE,CM-15,CM,Current,43688,HecLow,HStr,HecLow+HStr
292,CLATSE CREEK,CLATSE CREEK,989,52.33571905,-127.8379347,Stream,910-371518-000000-000000-000000-000000-000000-000000-000000-000000-000000-000000-000000-000000-000000-000000-000000-000000-000000-000000-000000,910-385700-00000-00000-0000-0000-000-000-000-000-000-000,SPILLER-FITZ HUGH-BURKE,CM-15,CM,Current,51878,HecLow,HStr,HecLow+HStr
293,COLD CREEK,COLD CREEK,958,51.80918171,-127.8912718,Stream,910-197498-000000-000000-000000-000000-000000-000000-000000-000000-000000-000000-000000-000000-000000-000000-000000-000000-000000-000000-000000,910-213700-00000-00000-0000-0000-000-000-000-000-000-000,SPILLER-FITZ HUGH-BURKE,CM-15,CM,Current,51718,HecLow,HStr,HecLow+HStr
294,COOPER INLET CREEKS,,1791,52.04428874,-128.0685051,Stream Aggregate,,,SPILLER-FITZ HUGH-BURKE,CM-15,CM,Current,43693,HecLow,HStr,HecLow+HStr
295,CRAB HARBOUR CREEK,,1785,51.90057748,-128.0335745,Stream,915-553298-895054-000000-000000-000000-000000-000000-000000-000000-000000-000000-000000-000000-000000-000000-000000-000000-000000-000000-000000,915-213000-87100-00000-0000-0000-000-000-000-000-000-000,SPILLER-FITZ HUGH-BURKE,CM-15,CM,Current,43663,HecLow,HStr,HecLow+HStr
296,DE COSMOS LAGOON CREEK,,1784,51.94104497,-127.973815,Stream,915-553298-832835-000000-000000-000000-000000-000000-000000-000000-000000-000000-000000-000000-000000-000000-000000-000000-000000-000000-000000,915-213000-81200-00000-0000-0000-000-000-000-000-000-000,SPILLER-FITZ HUGH-BURKE,CM-15,CM,Current,43658,HecLow,HStr,HecLow+HStr
297,DEER PASS LAGOON CREEKS,,1806,52.22209702,-127.9963489,Stream Aggregate,915-583813-439111-693654-000000-000000-000000-000000-000000-000000-000000-000000-000000-000000-000000-000000-000000-000000-000000-000000-000000,915-233500-50100-00000-0000-0000-000-000-000-000-000-000,SPILLER-FITZ HUGH-BURKE,CM-15,CM,Current,43768,HecLow,HStr,HecLow+HStr
298,DREW CREEK,,1802,52.14475106,-128.0053223,Stream,915-576730-494865-000000-000000-000000-000000-000000-000000-000000-000000-000000-000000-000000-000000-000000-000000-000000-000000-000000-000000,915-230500-52900-00000-0000-0000-000-000-000-000-000-000,SPILLER-FITZ HUGH-BURKE,CM-15,CM,Current,43748,HecLow,HStr,HecLow+HStr
299,ELCHO CREEK,ELCHO CREEK,984,52.40058471,-127.5393258,Stream,910-346442-000000-000000-000000-000000-000000-000000-000000-000000-000000-000000-000000-000000-000000-000000-000000-000000-000000-000000-000000,910-361300-00000-00000-0000-0000-000-000-000-000-000-000,SPILLER-FITZ HUGH-BURKE,CM-15,CM,Current,51853,NC,HStr,NC+HStr
300,ELLERSLIE LAGOON CREEK,,996,52.52975759,-127.9961594,Stream,910-420700-000000-000000-000000-000000-000000-000000-000000-000000-000000-000000-000000-000000-000000-000000-000000-000000-000000-000000-000000,910-433100-00000-00000-0000-0000-000-000-000-000-000-000,SPILLER-FITZ HUGH-BURKE,CM-15,CM,Current,51913,HecLow,HStr,HecLow+HStr
301,EMILY CREEK,,994,52.39194397,-128.0168366,Stream,910-407832-000000-000000-000000-000000-000000-000000-000000-000000-000000-000000-000000-000000-000000-000000-000000-000000-000000-000000-000000,910-420500-00000-00000-0000-0000-000-000-000-000-000-000,SPILLER-FITZ HUGH-BURKE,CM-15,CM,Current,51903,HecLow,HStr,HecLow+HStr
