OBJECTID,SITE_NAME,GAZ_NAME,GFE_ID,Y_LAT,X_LONG,GFE_TYPE,WS_CDE_20K,WS_CDE_50K,CU_NAME,FULL_CU_IN,SP_QUAL,CU_TYPE,POP_ID,FAZ_ACRO,MAZ_ACRO,JAZ_ACRO
1,BOB CREEK,,1169,49.4990419,-124.7961108,Stream,,,GEORGIA STRAIT,PKE-1,PKE,Current,51264,EVI,GStr,EVI+GStr
2,BREM RIVER,BREM RIVER,813,50.43562185,-124.6663421,Stream,900-358652-000000-000000-000000-000000-000000-000000-000000-000000-000000-000000-000000-000000-000000-000000-000000-000000-000000-000000-000000,900-357900-00000-00000-0000-0000-000-000-000-000-000-000,GEORGIA STRAIT,PKE-1,PKE,Current,50504,SC,GStr,SC+GStr
3,BREM RIVER TRIBUTARY,,814,50.44015226,-124.6670776,Stream,900-358652-020005-000000-000000-000000-000000-000000-000000-000000-000000-000000-000000-000000-000000-000000-000000-000000-000000-000000-000000,900-357900-01700-00000-0000-0000-000-000-000-000-000-000,GEORGIA STRAIT,PKE-1,PKE,Current,50514,SC,GStr,SC+GStr
4,BRITTAIN RIVER,BRITTAIN RIVER,784,49.99745038,-124.0096571,Stream,900-247763-000000-000000-000000-000000-000000-000000-000000-000000-000000-000000-000000-000000-000000-000000-000000-000000-000000-000000-000000,900-244600-00000-00000-0000-0000-000-000-000-000-000-000,GEORGIA STRAIT,PKE-1,PKE,Current,48918,SC,GStr,SC+GStr
5,BROOKLYN CREEK,BROOKLYN CREEK,1155,49.66895137,-124.914275,Stream,920-565088-000000-000000-000000-000000-000000-000000-000000-000000-000000-000000-000000-000000-000000-000000-000000-000000-000000-000000-000000,920-558600-00000-00000-0000-0000-000-000-000-000-000-000,GEORGIA STRAIT,PKE-1,PKE,Current,53054,EVI,GStr,EVI+GStr
6,CAMPBELL RIVER,CAMPBELL RIVER,1141,50.04871847,-125.2584714,Stream,920-627155-000000-000000-000000-000000-000000-000000-000000-000000-000000-000000-000000-000000-000000-000000-000000-000000-000000-000000-000000,920-627900-00000-00000-0000-0000-000-000-000-000-000-000,GEORGIA STRAIT,PKE-1,PKE,Current,52914,EVI,GStr,EVI+GStr
7,CAPILANO RIVER,CAPILANO RIVER,697,49.32156126,-123.1397285,Stream,900-083503-000000-000000-000000-000000-000000-000000-000000-000000-000000-000000-000000-000000-000000-000000-000000-000000-000000-000000-000000,900-071100-00000-00000-0000-0000-000-000-000-000-000-000,GEORGIA STRAIT,PKE-1,PKE,Current,49871,SC,GStr,SC+GStr
8,CARLSON CREEK,CARLSON CREEK,768,49.54193053,-123.7996671,Stream,900-165880-000000-000000-000000-000000-000000-000000-000000-000000-000000-000000-000000-000000-000000-000000-000000-000000-000000-000000-000000,900-162600-00000-00000-0000-0000-000-000-000-000-000-000,GEORGIA STRAIT,PKE-1,PKE,Current,48758,SC,GStr,SC+GStr
9,CASEY CREEK,CASEY CREEK,2819,50.06935926,-125.2901324,Stream,920-631984-000000-000000-000000-000000-000000-000000-000000-000000-000000-000000-000000-000000-000000-000000-000000-000000-000000-000000-000000,920-633400-00000-00000-0000-0000-000-000-000-000-000-000,GEORGIA STRAIT,PKE-1,PKE,Current,3329,EVI,GStr,EVI+GStr
10,CHAPMAN CREEK,CHAPMAN CREEK,760,49.4392778,-123.723453,Stream,900-127577-000000-000000-000000-000000-000000-000000-000000-000000-000000-000000-000000-000000-000000-000000-000000-000000-000000-000000-000000,900-120400-00000-00000-0000-0000-000-000-000-000-000-000,GEORGIA STRAIT,PKE-1,PKE,Current,48668,SC,GStr,SC+GStr
11,CHEMAINUS RIVER,CHEMAINUS RIVER,1204,48.89792583,-123.6731808,Stream,920-302830-000000-000000-000000-000000-000000-000000-000000-000000-000000-000000-000000-000000-000000-000000-000000-000000-000000-000000-000000,920-303500-00000-00000-0000-0000-000-000-000-000-000-000,GEORGIA STRAIT,PKE-1,PKE,Current,39979,EVI,GStr,EVI+GStr
12,CLEAR CREEK,CLEAR CREEK,1132,50.16525129,-125.1877836,Stream,905-405793-775537-000000-000000-000000-000000-000000-000000-000000-000000-000000-000000-000000-000000-000000-000000-000000-000000-000000-000000,905-291000-76900-00000-0000-0000-000-000-000-000-000-000,GEORGIA STRAIT,PKE-1,PKE,Current,52824,SC,SFj,SC+SFj
13,COWICHAN RIVER,COWICHAN RIVER,1208,48.75324893,-123.6363173,Stream,920-252823-000000-000000-000000-000000-000000-000000-000000-000000-000000-000000-000000-000000-000000-000000-000000-000000-000000-000000-000000,920-257700-00000-00000-0000-0000-000-000-000-000-000-000,GEORGIA STRAIT,PKE-1,PKE,Current,40019,EVI,GStr,EVI+GStr
14,DESERTED RIVER,DESERTED RIVER,780,50.09275635,-123.7421363,Stream,900-223912-000000-000000-000000-000000-000000-000000-000000-000000-000000-000000-000000-000000-000000-000000-000000-000000-000000-000000-000000,900-220600-00000-00000-0000-0000-000-000-000-000-000-000,GEORGIA STRAIT,PKE-1,PKE,Current,48878,SC,GStr,SC+GStr
15,DREW CREEK,DREW CREEK,1135,50.08877979,-125.1923656,Stream,905-405793-902265-000000-000000-000000-000000-000000-000000-000000-000000-000000-000000-000000-000000-000000-000000-000000-000000-000000-000000,905-291000-89600-00000-0000-0000-000-000-000-000-000-000,GEORGIA STRAIT,PKE-1,PKE,Current,52854,SC,GStr,SC+GStr
16,ENGLISHMAN RIVER,ENGLISHMAN RIVER,1184,49.32530375,-124.2916648,Stream,920-470275-000000-000000-000000-000000-000000-000000-000000-000000-000000-000000-000000-000000-000000-000000-000000-000000-000000-000000-000000,920-462800-00000-00000-0000-0000-000-000-000-000-000-000,GEORGIA STRAIT,PKE-1,PKE,Current,51414,EVI,GStr,EVI+GStr
17,FORBES BAY CREEK,,804,50.27464061,-124.6219927,Stream,900-336002-000000-000000-000000-000000-000000-000000-000000-000000-000000-000000-000000-000000-000000-000000-000000-000000-000000-000000-000000,900-333800-00000-00000-0000-0000-000-000-000-000-000-000,GEORGIA STRAIT,PKE-1,PKE,Current,49118,SC,GStr,SC+GStr
18,FRENCH CREEK,FRENCH CREEK,1183,49.3490156,-124.3635878,Stream,920-479504-000000-000000-000000-000000-000000-000000-000000-000000-000000-000000-000000-000000-000000-000000-000000-000000-000000-000000-000000,920-470700-00000-00000-0000-0000-000-000-000-000-000-000,GEORGIA STRAIT,PKE-1,PKE,Current,51404,EVI,GStr,EVI+GStr
19,GOLDSTREAM RIVER,GOLDSTREAM RIVER,1211,48.48517285,-123.5483606,Stream,920-209673-000000-000000-000000-000000-000000-000000-000000-000000-000000-000000-000000-000000-000000-000000-000000-000000-000000-000000-000000,920-211900-00000-00000-0000-0000-000-000-000-000-000-000,GEORGIA STRAIT,PKE-1,PKE,Current,40049,EVI,GStr,EVI+GStr
20,GRAY CREEK,GRAY CREEK,773,49.53858079,-123.7655953,Stream,900-171722-000000-000000-000000-000000-000000-000000-000000-000000-000000-000000-000000-000000-000000-000000-000000-000000-000000-000000-000000,900-168400-00000-00000-0000-0000-000-000-000-000-000-000,GEORGIA STRAIT,PKE-1,PKE,Current,48808,SC,GStr,SC+GStr
21,HAIG-BROWN KINGFISHER CREEK,HAIG-BROWN KINGFISHER CREEK,1143,50.03593734,-125.2803284,Stream,920-627155-033898-000000-000000-000000-000000-000000-000000-000000-000000-000000-000000-000000-000000-000000-000000-000000-000000-000000-000000,920-627900-03559-00000-0000-0000-000-000-000-000-000-000,GEORGIA STRAIT,PKE-1,PKE,Current,52934,EVI,GStr,EVI+GStr
22,HEADQUARTERS CREEK,HEADQUARTERS CREEK,398,49.76751518,-125.1182952,Stream,920-559826-990728-423365-000000-000000-000000-000000-000000-000000-000000-000000-000000-000000-000000-000000-000000-000000-000000-000000-000000,920-553200-94100-43300-0000-0000-000-000-000-000-000-000,GEORGIA STRAIT,PKE-1,PKE,Current,45851,EVI,GStr,EVI+GStr
23,HOLLAND CREEK,HOLLAND CREEK,1201,48.98109252,-123.804404,Stream,920-322181-000000-000000-000000-000000-000000-000000-000000-000000-000000-000000-000000-000000-000000-000000-000000-000000-000000-000000-000000,920-321500-00000-00000-0000-0000-000-000-000-000-000-000,GEORGIA STRAIT,PKE-1,PKE,Current,51584,EVI,GStr,EVI+GStr
24,INDIAN RIVER,INDIAN RIVER,688,49.47103553,-122.8831046,Stream,900-068008-000000-000000-000000-000000-000000-000000-000000-000000-000000-000000-000000-000000-000000-000000-000000-000000-000000-000000-000000,900-056000-00000-00000-0000-0000-000-000-000-000-000-000,GEORGIA STRAIT,PKE-1,PKE,Current,49826,SC,GStr,SC+GStr
25,JEFFERD CREEK,JEFFERD CREEK,788,49.77492545,-124.2793321,Stream,900-275764-000000-000000-000000-000000-000000-000000-000000-000000-000000-000000-000000-000000-000000-000000-000000-000000-000000-000000-000000,900-272400-00000-00000-0000-0000-000-000-000-000-000-000,GEORGIA STRAIT,PKE-1,PKE,Current,48958,SC,GStr,SC+GStr
26,JORDAN RIVER,JORDAN RIVER,1228,48.42189517,-124.0551848,Stream,930-038943-000000-000000-000000-000000-000000-000000-000000-000000-000000-000000-000000-000000-000000-000000-000000-000000-000000-000000-000000,930-037300-00000-00000-0000-0000-000-000-000-000-000-000,GEORGIA STRAIT,PKE-1,PKE,Current,40219,WVI,WVI,WVI+WVI
27,KELLY CREEK,KELLY CREEK,793,49.77388576,-124.3800977,Stream,900-282198-000000-000000-000000-000000-000000-000000-000000-000000-000000-000000-000000-000000-000000-000000-000000-000000-000000-000000-000000,900-278600-00000-00000-0000-0000-000-000-000-000-000-000,GEORGIA STRAIT,PKE-1,PKE,Current,49008,SC,GStr,SC+GStr
28,KLITE RIVER,KLITE RIVER,809,50.51142405,-124.3294549,Stream,900-350660-051414-000000-000000-000000-000000-000000-000000-000000-000000-000000-000000-000000-000000-000000-000000-000000-000000-000000-000000,900-349300-03300-00000-0000-0000-000-000-000-000-000-000,GEORGIA STRAIT,PKE-1,PKE,Current,50464,SC,GStr,SC+GStr
29,LANG CREEK,LANG CREEK,792,49.77633682,-124.3707081,Stream,900-281581-000000-000000-000000-000000-000000-000000-000000-000000-000000-000000-000000-000000-000000-000000-000000-000000-000000-000000-000000,900-278100-00000-00000-0000-0000-000-000-000-000-000-000,GEORGIA STRAIT,PKE-1,PKE,Current,48998,SC,GStr,SC+GStr
30,LITTLE QUALICUM RIVER,LITTLE QUALICUM RIVER,1181,49.3651022,-124.4948284,Stream,920-490278-000000-000000-000000-000000-000000-000000-000000-000000-000000-000000-000000-000000-000000-000000-000000-000000-000000-000000-000000,920-481800-00000-00000-0000-0000-000-000-000-000-000-000,GEORGIA STRAIT,PKE-1,PKE,Current,51384,EVI,GStr,EVI+GStr
31,LOIS RIVER,LOIS RIVER,790,49.77346406,-124.3306119,Stream,900-280522-000000-000000-000000-000000-000000-000000-000000-000000-000000-000000-000000-000000-000000-000000-000000-000000-000000-000000-000000,900-277000-00000-00000-0000-0000-000-000-000-000-000-000,GEORGIA STRAIT,PKE-1,PKE,Current,48978,SC,GStr,SC+GStr
32,MAMQUAM RIVER,MAMQUAM RIVER,709,49.73344309,-123.1546623,Stream,900-105574-066486-000000-000000-000000-000000-000000-000000-000000-000000-000000-000000-000000-000000-000000-000000-000000-000000-000000-000000,900-097600-05100-00000-0000-0000-000-000-000-000-000-000,GEORGIA STRAIT,PKE-1,PKE,Current,49931,SC,GStr,SC+GStr
33,MCKERCHER CREEK,MCKERCHER CREEK,1134,50.12972011,-125.2392642,Stream,905-405793-854178-000000-000000-000000-000000-000000-000000-000000-000000-000000-000000-000000-000000-000000-000000-000000-000000-000000-000000,905-291000-84800-00000-0000-0000-000-000-000-000-000-000,GEORGIA STRAIT,PKE-1,PKE,Current,52844,SC,GStr,SC+GStr
34,MENZIES CREEK,MENZIES CREEK,1139,50.13731398,-125.3911746,Stream,920-644562-000000-000000-000000-000000-000000-000000-000000-000000-000000-000000-000000-000000-000000-000000-000000-000000-000000-000000-000000,920-646600-00000-00000-0000-0000-000-000-000-000-000-000,GEORGIA STRAIT,PKE-1,PKE,Current,52894,EVI,GStr,EVI+GStr
35,MILLARD CREEK,MILLARD CREEK,1162,49.66945695,-124.9741573,Stream,920-558488-000000-000000-000000-000000-000000-000000-000000-000000-000000-000000-000000-000000-000000-000000-000000-000000-000000-000000-000000,920-551800-00000-00000-0000-0000-000-000-000-000-000-000,GEORGIA STRAIT,PKE-1,PKE,Current,53124,EVI,GStr,EVI+GStr
36,MOHUN CREEK,MOHUN CREEK,1140,50.11208411,-125.3739984,Stream,920-641351-000000-000000-000000-000000-000000-000000-000000-000000-000000-000000-000000-000000-000000-000000-000000-000000-000000-000000-000000,920-643100-00000-00000-0000-0000-000-000-000-000-000-000,GEORGIA STRAIT,PKE-1,PKE,Current,52904,EVI,GStr,EVI+GStr
37,MORRISON CREEK,MORRISON CREEK,1160,49.68891592,-125.0137395,Stream,920-559826-984406-044942-000000-000000-000000-000000-000000-000000-000000-000000-000000-000000-000000-000000-000000-000000-000000-000000-000000,920-553200-94200-04800-0000-0000-000-000-000-000-000-000,GEORGIA STRAIT,PKE-1,PKE,Current,53104,EVI,GStr,EVI+GStr
38,NANAIMO RIVER,NANAIMO RIVER,1194,49.13837819,-123.8958267,Stream,920-388982-000000-000000-000000-000000-000000-000000-000000-000000-000000-000000-000000-000000-000000-000000-000000-000000-000000-000000-000000,920-384400-00000-00000-0000-0000-000-000-000-000-000-000,GEORGIA STRAIT,PKE-1,PKE,Current,51514,EVI,GStr,EVI+GStr
39,NANOOSE CREEK,NANOOSE CREEK,1186,49.26745399,-124.1928098,Stream,920-432397-000000-000000-000000-000000-000000-000000-000000-000000-000000-000000-000000-000000-000000-000000-000000-000000-000000-000000-000000,920-427200-00000-00000-0000-0000-000-000-000-000-000-000,GEORGIA STRAIT,PKE-1,PKE,Current,51434,EVI,GStr,EVI+GStr
40,NILE CREEK,NILE CREEK,1178,49.42027162,-124.6403501,Stream,920-502507-000000-000000-000000-000000-000000-000000-000000-000000-000000-000000-000000-000000-000000-000000-000000-000000-000000-000000-000000,920-494300-00000-00000-0000-0000-000-000-000-000-000-000,GEORGIA STRAIT,PKE-1,PKE,Current,51354,EVI,GStr,EVI+GStr
41,NUNNS CREEK,NUNNS CREEK,1142,50.04342156,-125.2522597,Stream,920-627155-006272-000000-000000-000000-000000-000000-000000-000000-000000-000000-000000-000000-000000-000000-000000-000000-000000-000000-000000,920-626200-00000-00000-0000-0000-000-000-000-000-000-000,GEORGIA STRAIT,PKE-1,PKE,Current,52924,EVI,GStr,EVI+GStr
42,OKEOVER CREEK,,799,49.9640191,-124.6755039,Stream,900-305975-000000-000000-000000-000000-000000-000000-000000-000000-000000-000000-000000-000000-000000-000000-000000-000000-000000-000000-000000,900-303400-00000-00000-0000-0000-000-000-000-000-000-000,GEORGIA STRAIT,PKE-1,PKE,Current,49068,SC,GStr,SC+GStr
43,OPEN BAY CREEK,,1133,50.13935631,-125.2180643,Stream,905-405793-829793-000000-000000-000000-000000-000000-000000-000000-000000-000000-000000-000000-000000-000000-000000-000000-000000-000000-000000,905-291000-82400-00000-0000-0000-000-000-000-000-000-000,GEORGIA STRAIT,PKE-1,PKE,Current,52834,SC,GStr,SC+GStr
44,OYSTER RIVER,OYSTER RIVER,1149,49.87257621,-125.1160697,Stream,920-602544-000000-000000-000000-000000-000000-000000-000000-000000-000000-000000-000000-000000-000000-000000-000000-000000-000000-000000-000000,920-600400-00000-00000-0000-0000-000-000-000-000-000-000,GEORGIA STRAIT,PKE-1,PKE,Current,52994,EVI,GStr,EVI+GStr
45,PUNTLEDGE RIVER,PUNTLEDGE RIVER,1156,49.69591542,-124.9949375,Stream,920-559826-984406-000000-000000-000000-000000-000000-000000-000000-000000-000000-000000-000000-000000-000000-000000-000000-000000-000000-000000,920-553200-94200-00000-0000-0000-000-000-000-000-000-000,GEORGIA STRAIT,PKE-1,PKE,Current,53064,EVI,GStr,EVI+GStr
46,QUALICUM RIVER,QUALICUM RIVER,1179,49.39818979,-124.6105447,Stream,920-499091-000000-000000-000000-000000-000000-000000-000000-000000-000000-000000-000000-000000-000000-000000-000000-000000-000000-000000-000000,920-490700-00000-00000-0000-0000-000-000-000-000-000-000,GEORGIA STRAIT,PKE-1,PKE,Current,51364,EVI,GStr,EVI+GStr
47,QUATAM RIVER,QUATAM RIVER,815,50.37826932,-124.9380533,Stream,900-369411-000000-000000-000000-000000-000000-000000-000000-000000-000000-000000-000000-000000-000000-000000-000000-000000-000000-000000-000000,900-368900-00000-00000-0000-0000-000-000-000-000-000-000,GEORGIA STRAIT,PKE-1,PKE,Current,50524,SC,GStr,SC+GStr
48,QUINSAM RIVER,QUINSAM RIVER,1144,50.03756379,-125.2941625,Stream,920-627155-045026-000000-000000-000000-000000-000000-000000-000000-000000-000000-000000-000000-000000-000000-000000-000000-000000-000000-000000,920-627900-03600-00000-0000-0000-000-000-000-000-000-000,GEORGIA STRAIT,PKE-1,PKE,Current,52944,EVI,GStr,EVI+GStr
49,ROSEWALL CREEK,ROSEWALL CREEK,1172,49.46668516,-124.7786389,Stream,920-519315-000000-000000-000000-000000-000000-000000-000000-000000-000000-000000-000000-000000-000000-000000-000000-000000-000000-000000-000000,920-510600-00000-00000-0000-0000-000-000-000-000-000-000,GEORGIA STRAIT,PKE-1,PKE,Current,51294,EVI,GStr,EVI+GStr
50,SECHELT CREEK,SECHELT CREEK,774,49.68137349,-123.5557995,Stream,900-180821-000000-000000-000000-000000-000000-000000-000000-000000-000000-000000-000000-000000-000000-000000-000000-000000-000000-000000-000000,900-177400-00000-00000-0000-0000-000-000-000-000-000-000,GEORGIA STRAIT,PKE-1,PKE,Current,48818,SC,GStr,SC+GStr
51,SEYMOUR RIVER,SEYMOUR RIVER,691,49.30187968,-123.0246177,Stream,900-078372-000000-000000-000000-000000-000000-000000-000000-000000-000000-000000-000000-000000-000000-000000-000000-000000-000000-000000-000000,900-066100-00000-00000-0000-0000-000-000-000-000-000-000,GEORGIA STRAIT,PKE-1,PKE,Current,49841,SC,GStr,SC+GStr
52,SHANNON CREEK,SHANNON CREEK,772,49.67508422,-123.1614743,Stream,900-102436-000000-000000-000000-000000-000000-000000-000000-000000-000000-000000-000000-000000-000000-000000-000000-000000-000000-000000-000000,900-090400-00000-00000-0000-0000-000-000-000-000-000-000,GEORGIA STRAIT,PKE-1,PKE,Current,48798,SC,GStr,SC+GStr
53,SIMMS CREEK,SIMMS CREEK,1145,49.9790359,-125.221839,Stream,920-617535-000000-000000-000000-000000-000000-000000-000000-000000-000000-000000-000000-000000-000000-000000-000000-000000-000000-000000-000000,920-616300-00000-00000-0000-0000-000-000-000-000-000-000,GEORGIA STRAIT,PKE-1,PKE,Current,52954,EVI,GStr,EVI+GStr
54,SKWAWKA RIVER,SKWAWKA RIVER,782,50.20767865,-123.987827,Stream,900-236275-000000-000000-000000-000000-000000-000000-000000-000000-000000-000000-000000-000000-000000-000000-000000-000000-000000-000000-000000,900-233000-00000-00000-0000-0000-000-000-000-000-000-000,GEORGIA STRAIT,PKE-1,PKE,Current,48898,SC,GStr,SC+GStr
55,SLIAMMON CREEK,SLIAMMON CREEK,798,49.8954064,-124.6063183,Stream,900-289325-000000-000000-000000-000000-000000-000000-000000-000000-000000-000000-000000-000000-000000-000000-000000-000000-000000-000000-000000,900-286000-00000-00000-0000-0000-000-000-000-000-000-000,GEORGIA STRAIT,PKE-1,PKE,Current,49058,SC,GStr,SC+GStr
56,SOOKE RIVER,SOOKE RIVER,1221,48.38412518,-123.6990178,Stream,930-023810-000000-000000-000000-000000-000000-000000-000000-000000-000000-000000-000000-000000-000000-000000-000000-000000-000000-000000-000000,930-022100-00000-00000-0000-0000-000-000-000-000-000-000,GEORGIA STRAIT,PKE-1,PKE,Current,40149,WVI,WVI,WVI+WVI
57,SQUAMISH RIVER,SQUAMISH RIVER,708,49.68522032,-123.1807758,Stream,900-105574-000000-000000-000000-000000-000000-000000-000000-000000-000000-000000-000000-000000-000000-000000-000000-000000-000000-000000-000000,900-097600-00000-00000-0000-0000-000-000-000-000-000-000,GEORGIA STRAIT,PKE-1,PKE,Current,49926,SC,GStr,SC+GStr
58,TAHUMMING RIVER,TAHUMMING RIVER,812,50.49277248,-124.3873646,Stream,900-351670-000000-000000-000000-000000-000000-000000-000000-000000-000000-000000-000000-000000-000000-000000-000000-000000-000000-000000-000000,900-350700-00000-00000-0000-0000-000-000-000-000-000-000,GEORGIA STRAIT,PKE-1,PKE,Current,50494,SC,GStr,SC+GStr
59,THEODOSIA RIVER,THEODOSIA RIVER,800,50.08042829,-124.6548457,Stream,900-311867-000000-000000-000000-000000-000000-000000-000000-000000-000000-000000-000000-000000-000000-000000-000000-000000-000000-000000-000000,900-309400-00000-00000-0000-0000-000-000-000-000-000-000,GEORGIA STRAIT,PKE-1,PKE,Current,49078,SC,GStr,SC+GStr
60,TOBA RIVER,TOBA RIVER,808,50.48861581,-124.3658656,Stream,900-350660-000000-000000-000000-000000-000000-000000-000000-000000-000000-000000-000000-000000-000000-000000-000000-000000-000000-000000-000000,900-349300-00000-00000-0000-0000-000-000-000-000-000-000,GEORGIA STRAIT,PKE-1,PKE,Current,49798,SC,GStr,SC+GStr
61,TRENT RIVER,TRENT RIVER,1164,49.64412312,-124.9300627,Stream,920-553164-000000-000000-000000-000000-000000-000000-000000-000000-000000-000000-000000-000000-000000-000000-000000-000000-000000-000000-000000,920-545800-00000-00000-0000-0000-000-000-000-000-000-000,GEORGIA STRAIT,PKE-1,PKE,Current,52034,EVI,GStr,EVI+GStr
62,TSABLE RIVER,TSABLE RIVER,1166,49.51873293,-124.8299599,Stream,920-535278-000000-000000-000000-000000-000000-000000-000000-000000-000000-000000-000000-000000-000000-000000-000000-000000-000000-000000-000000,920-527600-00000-00000-0000-0000-000-000-000-000-000-000,GEORGIA STRAIT,PKE-1,PKE,Current,52054,EVI,GStr,EVI+GStr
63,TSOLUM RIVER,TSOLUM RIVER,1157,49.69576794,-124.9945001,Stream,920-559826-990728-000000-000000-000000-000000-000000-000000-000000-000000-000000-000000-000000-000000-000000-000000-000000-000000-000000-000000,920-553200-94100-00000-0000-0000-000-000-000-000-000-000,GEORGIA STRAIT,PKE-1,PKE,Current,53074,EVI,GStr,EVI+GStr
64,TZOONIE RIVER,TZOONIE RIVER,776,49.78782449,-123.7235744,Stream,900-198810-000000-000000-000000-000000-000000-000000-000000-000000-000000-000000-000000-000000-000000-000000-000000-000000-000000-000000-000000,900-195000-00000-00000-0000-0000-000-000-000-000-000-000,GEORGIA STRAIT,PKE-1,PKE,Current,48838,SC,GStr,SC+GStr
65,VANCOUVER RIVER,VANCOUVER RIVER,778,49.92180994,-123.8693139,Stream,900-213488-000000-000000-000000-000000-000000-000000-000000-000000-000000-000000-000000-000000-000000-000000-000000-000000-000000-000000-000000,900-210100-00000-00000-0000-0000-000-000-000-000-000-000,GEORGIA STRAIT,PKE-1,PKE,Current,48858,SC,GStr,SC+GStr
66,WHITTALL CREEK,WHITTALL CREEK,791,49.77651769,-124.3530326,Stream,900-281180-000000-000000-000000-000000-000000-000000-000000-000000-000000-000000-000000-000000-000000-000000-000000-000000-000000-000000-000000,900-277700-00000-00000-0000-0000-000-000-000-000-000-000,GEORGIA STRAIT,PKE-1,PKE,Current,48988,SC,GStr,SC+GStr
67,WILFRED CREEK,WILFRED CREEK,1170,49.48333987,-124.7970385,Stream,920-525880-000000-000000-000000-000000-000000-000000-000000-000000-000000-000000-000000-000000-000000-000000-000000-000000-000000-000000-000000,920-517300-00000-00000-0000-0000-000-000-000-000-000-000,GEORGIA STRAIT,PKE-1,PKE,Current,51274,EVI,GStr,EVI+GStr
68,WILLOW CREEK,WILLOW CREEK,1146,49.96588191,-125.2083355,Stream,920-615785-000000-000000-000000-000000-000000-000000-000000-000000-000000-000000-000000-000000-000000-000000-000000-000000-000000-000000-000000,920-614400-00000-00000-0000-0000-000-000-000-000-000-000,GEORGIA STRAIT,PKE-1,PKE,Current,52964,EVI,GStr,EVI+GStr
69,AERO CREEK,,1583,53.05373083,-131.9152646,Stream,950-059861-000000-000000-000000-000000-000000-000000-000000-000000-000000-000000-000000-000000-000000-000000-000000-000000-000000-000000-000000,950-062020-00000-00000-0000-0000-000-000-000-000-000-000,EAST HAIDA GWAII,PKE-10,PKE,Current,42802,HG,HStr,HG+HStr
70,ALDER ISLAND CREEK,,1721,52.43763502,-131.3135956,Stream,955-605755-284025-000000-000000-000000-000000-000000-000000-000000-000000-000000-000000-000000-000000-000000-000000-000000-000000-000000-000000,955-296800-28200-00000-0000-0000-000-000-000-000-000-000,EAST HAIDA GWAII,PKE-10,PKE,Current,43347,HG,HStr,HG+HStr
71,ANNA INLET CREEK,,1604,52.7037912,-131.8484802,Stream,950-169988-000000-000000-000000-000000-000000-000000-000000-000000-000000-000000-000000-000000-000000-000000-000000-000000-000000-000000-000000,950-166000-00000-00000-0000-0000-000-000-000-000-000-000,EAST HAIDA GWAII,PKE-10,PKE,Current,42907,HG,HStr,HG+HStr
72,ARROW CREEK,ARROW CREEK,1615,52.45721788,-131.4667117,Stream,950-275302-000000-000000-000000-000000-000000-000000-000000-000000-000000-000000-000000-000000-000000-000000-000000-000000-000000-000000-000000,950-275600-00000-00000-0000-0000-000-000-000-000-000-000,EAST HAIDA GWAII,PKE-10,PKE,Current,42962,HG,HStr,HG+HStr
73,BAG HARBOUR CREEK,,1624,52.34487767,-131.3708264,Stream,950-309679-000000-000000-000000-000000-000000-000000-000000-000000-000000-000000-000000-000000-000000-000000-000000-000000-000000-000000-000000,950-308600-00000-00000-0000-0000-000-000-000-000-000-000,EAST HAIDA GWAII,PKE-10,PKE,Current,43007,HG,HStr,HG+HStr
74,BELJAY BAY CREEK,,1705,52.68688159,-131.6361738,Stream,955-627565-394678-000000-000000-000000-000000-000000-000000-000000-000000-000000-000000-000000-000000-000000-000000-000000-000000-000000-000000,955-186000-39300-00000-0000-0000-000-000-000-000-000-000,EAST HAIDA GWAII,PKE-10,PKE,Current,42077,HG,HStr,HG+HStr
75,BIG GOOSE CREEK,BIG GOOSE CREEK,1597,52.86502736,-131.8784864,Stream,950-120891-000000-000000-000000-000000-000000-000000-000000-000000-000000-000000-000000-000000-000000-000000-000000-000000-000000-000000-000000,950-116200-00000-00000-0000-0000-000-000-000-000-000-000,EAST HAIDA GWAII,PKE-10,PKE,Current,42872,HG,HStr,HG+HStr
76,BRAVERMAN CREEK,BRAVERMAN CREEK,1585,53.0373225,-132.0293354,Stream,950-071751-000000-000000-000000-000000-000000-000000-000000-000000-000000-000000-000000-000000-000000-000000-000000-000000-000000-000000-000000,950-066800-00000-00000-0000-0000-000-000-000-000-000-000,EAST HAIDA GWAII,PKE-10,PKE,Current,42812,HG,HStr,HG+HStr
77,BREAKER BAY CREEK,,1693,52.90393537,-131.6560006,Stream,955-651227-903574-000000-000000-000000-000000-000000-000000-000000-000000-000000-000000-000000-000000-000000-000000-000000-000000-000000-000000,955-081000-72100-00000-0000-0000-000-000-000-000-000-000,EAST HAIDA GWAII,PKE-10,PKE,Current,42017,HG,HStr,HG+HStr
78,CAMERON CREEK,CAMERON CREEK,1684,53.1484564,-132.0865515,Stream,950-979304-000000-000000-000000-000000-000000-000000-000000-000000-000000-000000-000000-000000-000000-000000-000000-000000-000000-000000-000000,950-976300-00000-00000-0000-0000-000-000-000-000-000-000,EAST HAIDA GWAII,PKE-10,PKE,Current,41972,HG,HStr,HG+HStr
79,CARMICHAEL CREEK,,1587,52.98754212,-131.9380124,Stream,950-082884-000000-000000-000000-000000-000000-000000-000000-000000-000000-000000-000000-000000-000000-000000-000000-000000-000000-000000-000000,950-077200-00000-00000-0000-0000-000-000-000-000-000-000,EAST HAIDA GWAII,PKE-10,PKE,Current,42822,HG,HStr,HG+HStr
80,CARPENTER BAY CREEK,,1635,52.22441665,-131.1897723,Stream,950-373896-000000-000000-000000-000000-000000-000000-000000-000000-000000-000000-000000-000000-000000-000000-000000-000000-000000-000000-000000,950-374500-00000-00000-0000-0000-000-000-000-000-000-000,EAST HAIDA GWAII,PKE-10,PKE,Current,43062,HG,HStr,HG+HStr
81,CHADSEY CREEK,CHADSEY CREEK,1586,53.01224361,-131.9623273,Stream,950-079281-000000-000000-000000-000000-000000-000000-000000-000000-000000-000000-000000-000000-000000-000000-000000-000000-000000-000000-000000,950-073900-00000-00000-0000-0000-000-000-000-000-000-000,EAST HAIDA GWAII,PKE-10,PKE,Current,42817,HG,HStr,HG+HStr
82,CHINUKUNDL CREEK,CHINUKUNDL CREEK,1502,53.32424373,-131.9542312,Stream,940-080287-000000-000000-000000-000000-000000-000000-000000-000000-000000-000000-000000-000000-000000-000000-000000-000000-000000-000000-000000,940-086100-00000-00000-0000-0000-000-000-000-000-000-000,EAST HAIDA GWAII,PKE-10,PKE,Current,42482,HG,HStr,HG+HStr
83,CLINT CREEK,CLINT CREEK,1593,52.8764196,-131.987345,Stream,950-108292-000000-000000-000000-000000-000000-000000-000000-000000-000000-000000-000000-000000-000000-000000-000000-000000-000000-000000-000000,950-103200-00000-00000-0000-0000-000-000-000-000-000-000,EAST HAIDA GWAII,PKE-10,PKE,Current,42852,HG,HStr,HG+HStr
84,COPPER CREEK,COPPER CREEK,1579,53.16135122,-131.8003491,Stream,950-012855-000000-000000-000000-000000-000000-000000-000000-000000-000000-000000-000000-000000-000000-000000-000000-000000-000000-000000-000000,950-010400-00000-00000-0000-0000-000-000-000-000-000-000,EAST HAIDA GWAII,PKE-10,PKE,Current,41062,HG,HStr,HG+HStr
85,CRABAPPLE BROOK,CRABAPPLE BROOK,1509,53.25342775,-132.1106502,Stream,940-096791-000000-000000-000000-000000-000000-000000-000000-000000-000000-000000-000000-000000-000000-000000-000000-000000-000000-000000-000000,940-101700-00000-00000-0000-0000-000-000-000-000-000-000,EAST HAIDA GWAII,PKE-10,PKE,Current,42517,HG,HStr,HG+HStr
86,CRESCENT INLET CREEK,,1602,52.73995899,-131.8746056,Stream,950-158304-000000-000000-000000-000000-000000-000000-000000-000000-000000-000000-000000-000000-000000-000000-000000-000000-000000-000000-000000,950-153900-00000-00000-0000-0000-000-000-000-000-000-000,EAST HAIDA GWAII,PKE-10,PKE,Current,42897,HG,HStr,HG+HStr
87,DANA #1 CREEK,,1599,52.8090004,-131.8401292,Stream,950-129161-000000-000000-000000-000000-000000-000000-000000-000000-000000-000000-000000-000000-000000-000000-000000-000000-000000-000000-000000,950-124300-00000-00000-0000-0000-000-000-000-000-000-000,EAST HAIDA GWAII,PKE-10,PKE,Current,42882,HG,HStr,HG+HStr
88,DANA #2 CREEK,,1600,52.80615055,-131.8359971,Stream,950-129593-000000-000000-000000-000000-000000-000000-000000-000000-000000-000000-000000-000000-000000-000000-000000-000000-000000-000000-000000,950-124700-00000-00000-0000-0000-000-000-000-000-000-000,EAST HAIDA GWAII,PKE-10,PKE,Current,42887,HG,HStr,HG+HStr
89,DANA #3 CREEK,,1601,52.79542341,-131.811384,Stream,950-131344-000000-000000-000000-000000-000000-000000-000000-000000-000000-000000-000000-000000-000000-000000-000000-000000-000000-000000-000000,950-126500-00000-00000-0000-0000-000-000-000-000-000-000,EAST HAIDA GWAII,PKE-10,PKE,Current,42892,HG,HStr,HG+HStr
90,DASS CREEK,DASS CREEK,1589,52.92814546,-131.9503559,Stream,950-094133-000000-000000-000000-000000-000000-000000-000000-000000-000000-000000-000000-000000-000000-000000-000000-000000-000000-000000-000000,950-088700-00000-00000-0000-0000-000-000-000-000-000-000,EAST HAIDA GWAII,PKE-10,PKE,Current,42832,HG,HStr,HG+HStr
91,DEENA CREEK,DEENA CREEK,1683,53.14414958,-132.1347025,Stream,950-976286-000000-000000-000000-000000-000000-000000-000000-000000-000000-000000-000000-000000-000000-000000-000000-000000-000000-000000-000000,950-974300-00000-00000-0000-0000-000-000-000-000-000-000,EAST HAIDA GWAII,PKE-10,PKE,Current,41967,HG,HStr,HG+HStr
92,ECHO HARBOUR CREEK,,1606,52.69274362,-131.7717131,Stream,950-179963-000000-000000-000000-000000-000000-000000-000000-000000-000000-000000-000000-000000-000000-000000-000000-000000-000000-000000-000000,950-176500-00000-00000-0000-0000-000-000-000-000-000-000,EAST HAIDA GWAII,PKE-10,PKE,Current,42917,HG,HStr,HG+HStr
93,FORGOTTEN CREEK,FORGOTTEN CREEK,1620,52.40044036,-131.4025023,Stream,950-294894-000000-000000-000000-000000-000000-000000-000000-000000-000000-000000-000000-000000-000000-000000-000000-000000-000000-000000-000000,950-295613-00000-00000-0000-0000-000-000-000-000-000-000,EAST HAIDA GWAII,PKE-10,PKE,Current,42987,HG,HStr,HG+HStr
94,GATE CREEK,GATE CREEK,1710,52.6643791,-131.4637691,Stream,955-627565-648984-000000-000000-000000-000000-000000-000000-000000-000000-000000-000000-000000-000000-000000-000000-000000-000000-000000-000000,955-186000-64800-00000-0000-0000-000-000-000-000-000-000,EAST HAIDA GWAII,PKE-10,PKE,Current,43292,HG,HStr,HG+HStr
95,GEORGE BAY CREEK,,1626,52.30428629,-131.3415476,Stream,950-316868-000000-000000-000000-000000-000000-000000-000000-000000-000000-000000-000000-000000-000000-000000-000000-000000-000000-000000-000000,950-316600-00000-00000-0000-0000-000-000-000-000-000-000,EAST HAIDA GWAII,PKE-10,PKE,Current,43017,HG,HStr,HG+HStr
96,GORE BROOK,GORE BROOK,1508,53.25424524,-132.1006245,Stream,940-095325-000000-000000-000000-000000-000000-000000-000000-000000-000000-000000-000000-000000-000000-000000-000000-000000-000000-000000-000000,940-101200-00000-00000-0000-0000-000-000-000-000-000-000,EAST HAIDA GWAII,PKE-10,PKE,Current,42512,HG,HStr,HG+HStr
97,GRAY BAY CREEK,,1581,53.13150693,-131.7059202,Stream,950-023546-000000-000000-000000-000000-000000-000000-000000-000000-000000-000000-000000-000000-000000-000000-000000-000000-000000-000000-000000,950-019100-00000-00000-0000-0000-000-000-000-000-000-000,EAST HAIDA GWAII,PKE-10,PKE,Current,41072,HG,HStr,HG+HStr
98,HAANS CREEK,HAANS CREEK,1690,53.23790532,-131.8678639,Stream,950-999114-000000-000000-000000-000000-000000-000000-000000-000000-000000-000000-000000-000000-000000-000000-000000-000000-000000-000000-000000,950-996400-00000-00000-0000-0000-000-000-000-000-000-000,EAST HAIDA GWAII,PKE-10,PKE,Current,42002,HG,HStr,HG+HStr
99,HARRIET CREEK,HARRIET CREEK,1631,52.29242549,-131.2181894,Stream,950-340914-000000-000000-000000-000000-000000-000000-000000-000000-000000-000000-000000-000000-000000-000000-000000-000000-000000-000000-000000,950-341100-22500-00000-0000-0000-000-000-000-000-000-000,EAST HAIDA GWAII,PKE-10,PKE,Current,43042,HG,HStr,HG+HStr
100,HARTIE CREEK,HARTIE CREEK,1507,53.25425948,-132.0920318,Stream,940-094544-000000-000000-000000-000000-000000-000000-000000-000000-000000-000000-000000-000000-000000-000000-000000-000000-000000-000000-000000,940-100400-00000-00000-0000-0000-000-000-000-000-000-000,EAST HAIDA GWAII,PKE-10,PKE,Current,42507,HG,HStr,HG+HStr
101,HEATER HARBOUR CREEK,,1724,52.123698,-131.0655313,Stream,955-573458-463279-000000-000000-000000-000000-000000-000000-000000-000000-000000-000000-000000-000000-000000-000000-000000-000000-000000-000000,955-404700-51400-00000-0000-0000-000-000-000-000-000-000,EAST HAIDA GWAII,PKE-10,PKE,Current,43362,HG,HStr,HG+HStr
102,HONNA RIVER,HONNA RIVER,1511,53.2489486,-132.1318382,Stream,940-098825-000000-000000-000000-000000-000000-000000-000000-000000-000000-000000-000000-000000-000000-000000-000000-000000-000000-000000-000000,940-103900-00000-00000-0000-0000-000-000-000-000-000-000,EAST HAIDA GWAII,PKE-10,PKE,Current,42527,HG,HStr,HG+HStr
103,HUSTON R.H. AND L.H. CREEKS,,1628,52.24460054,-131.2454671,Stream,950-329770-000000-000000-000000-000000-000000-000000-000000-000000-000000-000000-000000-000000-000000-000000-000000-000000-000000-000000-000000,950-329000-00000-00000-0000-0000-000-000-000-000-000-000,EAST HAIDA GWAII,PKE-10,PKE,Current,43027,HG,HStr,HG+HStr
104,HUTTON HEAD CREEK,,1609,52.48850489,-131.5819669,Stream,950-251625-000000-000000-000000-000000-000000-000000-000000-000000-000000-000000-000000-000000-000000-000000-000000-000000-000000-000000-000000,950-249900-00000-00000-0000-0000-000-000-000-000-000-000,EAST HAIDA GWAII,PKE-10,PKE,Current,42932,HG,HStr,HG+HStr
105,HUTTON LEFT HAND CREEK,,1610,52.50019481,-131.5538447,Stream,950-253624-000000-000000-000000-000000-000000-000000-000000-000000-000000-000000-000000-000000-000000-000000-000000-000000-000000-000000-000000,950-251800-00000-00000-0000-0000-000-000-000-000-000-000,EAST HAIDA GWAII,PKE-10,PKE,Current,42937,HG,HStr,HG+HStr
106,IKEDA CREEK,IKEDA CREEK,1632,52.29467717,-131.1671047,Stream,950-351015-000000-000000-000000-000000-000000-000000-000000-000000-000000-000000-000000-000000-000000-000000-000000-000000-000000-000000-000000,950-351100-00000-00000-0000-0000-000-000-000-000-000-000,EAST HAIDA GWAII,PKE-10,PKE,Current,43047,HG,HStr,HG+HStr
107,INDIAN CABIN CREEK,INDIAN CABIN CREEK,1519,53.1953271,-132.2848256,Stream,940-124130-000000-000000-000000-000000-000000-000000-000000-000000-000000-000000-000000-000000-000000-000000-000000-000000-000000-000000-000000,940-130000-00000-00000-0000-0000-000-000-000-000-000-000,EAST HAIDA GWAII,PKE-10,PKE,Current,42567,HG,HStr,HG+HStr
108,INDIAN CABIN CREEK RIGHT HAND,,1518,53.19660604,-132.2833233,Stream,940-123937-000000-000000-000000-000000-000000-000000-000000-000000-000000-000000-000000-000000-000000-000000-000000-000000-000000-000000-000000,940-130000-13300-00000-0000-0000-000-000-000-000-000-000,EAST HAIDA GWAII,PKE-10,PKE,Current,42562,HG,HStr,HG+HStr
109,IRON DUKE CREEK,,1696,53.01074394,-131.7582888,Stream,955-651227-593156-000000-000000-000000-000000-000000-000000-000000-000000-000000-000000-000000-000000-000000-000000-000000-000000-000000-000000,955-081000-40300-00000-0000-0000-000-000-000-000-000-000,EAST HAIDA GWAII,PKE-10,PKE,Current,42032,HG,HStr,HG+HStr
110,KENDRICK POINT CREEK,,1639,52.19585271,-131.1266166,Stream,950-406476-000000-000000-000000-000000-000000-000000-000000-000000-000000-000000-000000-000000-000000-000000-000000-000000-000000-000000-000000,950-403743-00000-00000-0000-0000-000-000-000-000-000-000,EAST HAIDA GWAII,PKE-10,PKE,Current,43082,HG,HStr,HG+HStr
111,KOSTAN CREEK,,1607,52.57918999,-131.7148207,Stream,950-206645-000000-000000-000000-000000-000000-000000-000000-000000-000000-000000-000000-000000-000000-000000-000000-000000-000000-000000-000000,950-203500-00000-00000-0000-0000-000-000-000-000-000-000,EAST HAIDA GWAII,PKE-10,PKE,Current,42922,HG,HStr,HG+HStr
112,KOYA CREEK,,1637,52.215212,-131.0792775,Stream,950-382995-000000-000000-000000-000000-000000-000000-000000-000000-000000-000000-000000-000000-000000-000000-000000-000000-000000-000000-000000,950-384000-00000-00000-0000-0000-000-000-000-000-000-000,EAST HAIDA GWAII,PKE-10,PKE,Current,43072,HG,HStr,HG+HStr
113,LAGINS CREEK,LAGINS CREEK,1517,53.22731769,-132.3264649,Stream,940-119432-000000-000000-000000-000000-000000-000000-000000-000000-000000-000000-000000-000000-000000-000000-000000-000000-000000-000000-000000,940-124300-00000-00000-0000-0000-000-000-000-000-000-000,EAST HAIDA GWAII,PKE-10,PKE,Current,42557,HG,HStr,HG+HStr
114,LAGINS RIGHT HAND CREEK,,1516,53.23420659,-132.3225001,Stream,940-118690-000000-000000-000000-000000-000000-000000-000000-000000-000000-000000-000000-000000-000000-000000-000000-000000-000000-000000-000000,940-123500-00000-00000-0000-0000-000-000-000-000-000-000,EAST HAIDA GWAII,PKE-10,PKE,Current,42552,HG,HStr,HG+HStr
115,LAGOON CREEK,,1588,52.93706813,-131.9675888,Stream,950-092165-000000-000000-000000-000000-000000-000000-000000-000000-000000-000000-000000-000000-000000-000000-000000-000000-000000-000000-000000,950-086500-00000-00000-0000-0000-000-000-000-000-000-000,EAST HAIDA GWAII,PKE-10,PKE,Current,42827,HG,HStr,HG+HStr
116,LITTLE GOOSE CREEK,LITTLE GOOSE CREEK,1596,52.88247678,-131.8890397,Stream,950-115416-000000-000000-000000-000000-000000-000000-000000-000000-000000-000000-000000-000000-000000-000000-000000-000000-000000-000000-000000,950-110600-00000-00000-0000-0000-000-000-000-000-000-000,EAST HAIDA GWAII,PKE-10,PKE,Current,42867,HG,HStr,HG+HStr
117,LONGFELLOW CREEK,LONGFELLOW CREEK,1603,52.71702923,-131.8334662,Stream,950-168016-000000-000000-000000-000000-000000-000000-000000-000000-000000-000000-000000-000000-000000-000000-000000-000000-000000-000000-000000,950-164000-00000-00000-0000-0000-000-000-000-000-000-000,EAST HAIDA GWAII,PKE-10,PKE,Current,42902,HG,HStr,HG+HStr
118,LUXANA CREEK,,1726,52.07950905,-131.0634839,Stream,955-573458-750754-000000-000000-000000-000000-000000-000000-000000-000000-000000-000000-000000-000000-000000-000000-000000-000000-000000-000000,955-404700-79900-00000-0000-0000-000-000-000-000-000-000,EAST HAIDA GWAII,PKE-10,PKE,Current,43372,HG,HStr,HG+HStr
119,MACINTYRE CREEK,MACINTYRE CREEK,1578,53.16516526,-131.7995495,Stream,950-012529-000000-000000-000000-000000-000000-000000-000000-000000-000000-000000-000000-000000-000000-000000-000000-000000-000000-000000-000000,950-010100-00000-00000-0000-0000-000-000-000-000-000-000,EAST HAIDA GWAII,PKE-10,PKE,Current,41057,HG,HStr,HG+HStr
120,MACMILLAN CREEK,MACMILLAN CREEK,1687,53.18255055,-132.0299451,Stream,950-984946-000000-000000-000000-000000-000000-000000-000000-000000-000000-000000-000000-000000-000000-000000-000000-000000-000000-000000-000000,950-981700-00000-00000-0000-0000-000-000-000-000-000-000,EAST HAIDA GWAII,PKE-10,PKE,Current,41987,HG,HStr,HG+HStr
121,MARSHALL INLET RIGHT HAND CREEK,,1612,52.46921969,-131.5121173,Stream,950-267172-000000-000000-000000-000000-000000-000000-000000-000000-000000-000000-000000-000000-000000-000000-000000-000000-000000-000000-000000,950-266100-00000-00000-0000-0000-000-000-000-000-000-000,EAST HAIDA GWAII,PKE-10,PKE,Current,42947,HG,HStr,HG+HStr
122,MATHERS CREEK,MATHERS CREEK,1695,53.01751463,-131.7764512,Stream,955-651227-573426-000000-000000-000000-000000-000000-000000-000000-000000-000000-000000-000000-000000-000000-000000-000000-000000-000000-000000,955-081000-38300-00000-0000-0000-000-000-000-000-000-000,EAST HAIDA GWAII,PKE-10,PKE,Current,42027,HG,HStr,HG+HStr
123,MATHESON L.H. CREEK,,1614,52.44443987,-131.4770355,Stream,950-273393-000000-000000-000000-000000-000000-000000-000000-000000-000000-000000-000000-000000-000000-000000-000000-000000-000000-000000-000000,950-273100-00000-00000-0000-0000-000-000-000-000-000-000,EAST HAIDA GWAII,PKE-10,PKE,Current,42957,HG,HStr,HG+HStr
124,MATHESON RIGHT HAND CREEK,,1613,52.4437477,-131.4803952,Stream,950-273213-000000-000000-000000-000000-000000-000000-000000-000000-000000-000000-000000-000000-000000-000000-000000-000000-000000-000000-000000,950-272600-00000-00000-0000-0000-000-000-000-000-000-000,EAST HAIDA GWAII,PKE-10,PKE,Current,42952,HG,HStr,HG+HStr
125,MOORE CREEK,,1703,52.7135442,-131.6790208,Stream,955-627565-326194-000000-000000-000000-000000-000000-000000-000000-000000-000000-000000-000000-000000-000000-000000-000000-000000-000000-000000,955-186000-32400-00000-0000-0000-000-000-000-000-000-000,EAST HAIDA GWAII,PKE-10,PKE,Current,42067,HG,HStr,HG+HStr
126,MUD BAY CREEK,MUD BAY CREEK,1515,53.20758527,-132.2543503,Stream,940-111752-000000-000000-000000-000000-000000-000000-000000-000000-000000-000000-000000-000000-000000-000000-000000-000000-000000-000000-000000,940-116600-00000-00000-0000-0000-000-000-000-000-000-000,EAST HAIDA GWAII,PKE-10,PKE,Current,42547,HG,HStr,HG+HStr
127,OUTLOOK CREEK,OUTLOOK CREEK,1513,53.24333578,-132.1792094,Stream,940-103485-000000-000000-000000-000000-000000-000000-000000-000000-000000-000000-000000-000000-000000-000000-000000-000000-000000-000000-000000,940-108600-00000-00000-0000-0000-000-000-000-000-000-000,EAST HAIDA GWAII,PKE-10,PKE,Current,42537,HG,HStr,HG+HStr
128,OXALIS CREEK,OXALIS CREEK,1627,52.27556569,-131.3218854,Stream,950-320486-000000-000000-000000-000000-000000-000000-000000-000000-000000-000000-000000-000000-000000-000000-000000-000000-000000-000000-000000,950-319200-00000-00000-0000-0000-000-000-000-000-000-000,EAST HAIDA GWAII,PKE-10,PKE,Current,43022,HG,HStr,HG+HStr
129,PACOFI CREEK,PACOFI CREEK,1598,52.83481418,-131.8872395,Stream,950-124675-000000-000000-000000-000000-000000-000000-000000-000000-000000-000000-000000-000000-000000-000000-000000-000000-000000-000000-000000,950-119900-00000-00000-0000-0000-000-000-000-000-000-000,EAST HAIDA GWAII,PKE-10,PKE,Current,42877,HG,HStr,HG+HStr
130,PALLANT CREEK,PALLANT CREEK,1584,53.05209582,-132.0324985,Stream,950-069770-000000-000000-000000-000000-000000-000000-000000-000000-000000-000000-000000-000000-000000-000000-000000-000000-000000-000000-000000,950-065000-00000-00000-0000-0000-000-000-000-000-000-000,EAST HAIDA GWAII,PKE-10,PKE,Current,42807,HG,HStr,HG+HStr
131,PIPER CREEK,,1689,53.23703939,-131.9058305,Stream,950-997084-000000-000000-000000-000000-000000-000000-000000-000000-000000-000000-000000-000000-000000-000000-000000-000000-000000-000000-000000,950-994100-00000-00000-0000-0000-000-000-000-000-000-000,EAST HAIDA GWAII,PKE-10,PKE,Current,41997,HG,HStr,HG+HStr
132,POOLE INLET CREEKS (4),,1716,52.35311815,-131.3272851,Stream Aggregate,955-605755-000000-000000-000000-000000-000000-000000-000000-000000-000000-000000-000000-000000-000000-000000-000000-000000-000000-000000-000000,955-296800-61210-06157-0000-0000-000-000-000-000-000-000,EAST HAIDA GWAII,PKE-10,PKE,Current,43322,HG,HStr,HG+HStr
133,POWRIVCO CREEK,,1707,52.6811691,-131.5657846,Stream,955-627565-454243-000000-000000-000000-000000-000000-000000-000000-000000-000000-000000-000000-000000-000000-000000-000000-000000-000000-000000,955-186000-45200-00000-0000-0000-000-000-000-000-000-000,EAST HAIDA GWAII,PKE-10,PKE,Current,43277,HG,HStr,HG+HStr
134,RASPBERRY CREEK,,1638,52.1674198,-131.0812733,Stream,950-400162-000000-000000-000000-000000-000000-000000-000000-000000-000000-000000-000000-000000-000000-000000-000000-000000-000000-000000-000000,950-401500-00000-00000-0000-0000-000-000-000-000-000-000,EAST HAIDA GWAII,PKE-10,PKE,Current,43077,HG,HStr,HG+HStr
135,RICHARDSON CREEK,,1708,52.68124458,-131.5564812,Stream,955-627565-459252-000000-000000-000000-000000-000000-000000-000000-000000-000000-000000-000000-000000-000000-000000-000000-000000-000000-000000,955-186000-45800-00000-0000-0000-000-000-000-000-000-000,EAST HAIDA GWAII,PKE-10,PKE,Current,43282,HG,HStr,HG+HStr
136,SACHS CREEK,SACHS CREEK,1688,53.21390025,-131.9837056,Stream,950-992006-000000-000000-000000-000000-000000-000000-000000-000000-000000-000000-000000-000000-000000-000000-000000-000000-000000-000000-000000,950-990000-00000-00000-0000-0000-000-000-000-000-000-000,EAST HAIDA GWAII,PKE-10,PKE,Current,41992,HG,HStr,HG+HStr
137,SALMON RIVER,SALMON RIVER,1605,52.7025735,-131.8170742,Stream,950-173170-000000-000000-000000-000000-000000-000000-000000-000000-000000-000000-000000-000000-000000-000000-000000-000000-000000-000000-000000,950-169400-00000-00000-0000-0000-000-000-000-000-000-000,EAST HAIDA GWAII,PKE-10,PKE,Current,42912,HG,HStr,HG+HStr
138,SALTSPRING BAY CREEK,,1520,53.18824878,-132.2305248,Stream,940-128126-000000-000000-000000-000000-000000-000000-000000-000000-000000-000000-000000-000000-000000-000000-000000-000000-000000-000000-000000,940-133700-00000-00000-0000-0000-000-000-000-000-000-000,EAST HAIDA GWAII,PKE-10,PKE,Current,42572,HG,HStr,HG+HStr
139,SALTSPRING BAY L.H. CREEK,,1521,53.18455153,-132.2529477,Stream,940-126500-000000-000000-000000-000000-000000-000000-000000-000000-000000-000000-000000-000000-000000-000000-000000-000000-000000-000000-000000,940-132445-00000-00000-0000-0000-000-000-000-000-000-000,EAST HAIDA GWAII,PKE-10,PKE,Current,42577,HG,HStr,HG+HStr
140,SANDY CREEK,SANDY CREEK,1706,52.70122338,-131.5827102,Stream,955-627565-430222-000000-000000-000000-000000-000000-000000-000000-000000-000000-000000-000000-000000-000000-000000-000000-000000-000000-000000,955-186000-42700-00000-0000-0000-000-000-000-000-000-000,EAST HAIDA GWAII,PKE-10,PKE,Current,42797,HG,HStr,HG+HStr
141,SCUDDER POINT CREEK,,1715,52.41447738,-131.2673386,Stream,955-605755-466715-000000-000000-000000-000000-000000-000000-000000-000000-000000-000000-000000-000000-000000-000000-000000-000000-000000-000000,955-296800-45400-00000-0000-0000-000-000-000-000-000-000,EAST HAIDA GWAII,PKE-10,PKE,Current,43317,HG,HStr,HG+HStr
142,SEDGWICK BAY CREEK,,1713,52.6559848,-131.6055962,Stream,955-627565-773166-000000-000000-000000-000000-000000-000000-000000-000000-000000-000000-000000-000000-000000-000000-000000-000000-000000-000000,955-186000-77400-00000-0000-0000-000-000-000-000-000-000,EAST HAIDA GWAII,PKE-10,PKE,Current,43307,HG,HStr,HG+HStr
143,SEDMOND CREEK,SEDMOND CREEK,1640,52.20319736,-131.1555058,Stream,950-409054-000000-000000-000000-000000-000000-000000-000000-000000-000000-000000-000000-000000-000000-000000-000000-000000-000000-000000-000000,950-410500-00000-00000-0000-0000-000-000-000-000-000-000,EAST HAIDA GWAII,PKE-10,PKE,Current,43087,HG,HStr,HG+HStr
144,SEWELL INLET CREEK,SEWELL INLET CREEK,1592,52.87808022,-132.0118916,Stream,950-106687-000000-000000-000000-000000-000000-000000-000000-000000-000000-000000-000000-000000-000000-000000-000000-000000-000000-000000-000000,950-101700-00000-00000-0000-0000-000-000-000-000-000-000,EAST HAIDA GWAII,PKE-10,PKE,Current,42847,HG,HStr,HG+HStr
145,SEWELL INLET CREEK L.H. #2,,1594,52.87697789,-131.9495693,Stream,950-110517-000000-000000-000000-000000-000000-000000-000000-000000-000000-000000-000000-000000-000000-000000-000000-000000-000000-000000-000000,950-106996-00000-00000-0000-0000-000-000-000-000-000-000,EAST HAIDA GWAII,PKE-10,PKE,Current,42857,HG,HStr,HG+HStr
146,SEWELL POINT CREEK,,1590,52.9044865,-131.9255606,Stream,950-099780-000000-000000-000000-000000-000000-000000-000000-000000-000000-000000-000000-000000-000000-000000-000000-000000-000000-000000-000000,950-094600-00000-00000-0000-0000-000-000-000-000-000-000,EAST HAIDA GWAII,PKE-10,PKE,Current,42837,HG,HStr,HG+HStr
147,SHELDON'S BAY CREEK,,1580,53.14257018,-131.7551132,Stream,950-017246-000000-000000-000000-000000-000000-000000-000000-000000-000000-000000-000000-000000-000000-000000-000000-000000-000000-000000-000000,950-013800-00000-00000-0000-0000-000-000-000-000-000-000,EAST HAIDA GWAII,PKE-10,PKE,Current,41067,HG,HStr,HG+HStr
148,SKAAT HARBOUR L.H.CREEK,,1619,52.39129123,-131.430813,Stream,950-290724-000000-000000-000000-000000-000000-000000-000000-000000-000000-000000-000000-000000-000000-000000-000000-000000-000000-000000-000000,950-287992-00000-00000-0000-0000-000-000-000-000-000-000,EAST HAIDA GWAII,PKE-10,PKE,Current,42982,HG,HStr,HG+HStr
149,SKAAT HARBOUR R.H. CREEK,,1617,52.39124992,-131.4519621,Stream,950-287611-000000-000000-000000-000000-000000-000000-000000-000000-000000-000000-000000-000000-000000-000000-000000-000000-000000-000000-000000,950-285178-00000-00000-0000-0000-000-000-000-000-000-000,EAST HAIDA GWAII,PKE-10,PKE,Current,42972,HG,HStr,HG+HStr
150,SKEDANS CREEK,SKEDANS CREEK,1692,52.94428749,-131.6421288,Stream,955-651227-775425-000000-000000-000000-000000-000000-000000-000000-000000-000000-000000-000000-000000-000000-000000-000000-000000-000000-000000,955-081000-59000-00000-0000-0000-000-000-000-000-000-000,EAST HAIDA GWAII,PKE-10,PKE,Current,42012,HG,HStr,HG+HStr
151,SLATECHUCK CREEK,SLATECHUCK CREEK,1514,53.22424568,-132.2344508,Stream,940-107546-000000-000000-000000-000000-000000-000000-000000-000000-000000-000000-000000-000000-000000-000000-000000-000000-000000-000000-000000,940-112500-00000-00000-0000-0000-000-000-000-000-000-000,EAST HAIDA GWAII,PKE-10,PKE,Current,42542,HG,HStr,HG+HStr
152,SLATECHUCK R.H. CREEK,,2304,53.2272764,-132.2282912,Stream,940-107546-000000-000000-000000-000000-000000-000000-000000-000000-000000-000000-000000-000000-000000-000000-000000-000000-000000-000000-000000,940-109277-00000-00000-0000-0000-000-000-000-000-000-000,EAST HAIDA GWAII,PKE-10,PKE,Current,44806,HG,HStr,HG+HStr
153,SLEEPING BEAUTY CREEK,,3546,53.24108269,-132.166901,Stream,940-102637-000000-000000-000000-000000-000000-000000-000000-000000-000000-000000-000000-000000-000000-000000-000000-000000-000000-000000-000000,940-107411-00000-00000-0000-0000-000-000-000-000-000-000,EAST HAIDA GWAII,PKE-10,PKE,Current,3048,HG,HStr,HG+HStr
154,SOUTH BAY CREEK,SOUTH BAY CREEK,1685,53.14834673,-132.0809496,Stream,950-979601-000000-000000-000000-000000-000000-000000-000000-000000-000000-000000-000000-000000-000000-000000-000000-000000-000000-000000-000000,950-976700-00000-00000-0000-0000-000-000-000-000-000-000,EAST HAIDA GWAII,PKE-10,PKE,Current,41977,HG,HStr,HG+HStr
155,SOUTH BAY DUMP CREEK,,1686,53.15965069,-132.0667023,Stream,950-981005-000000-000000-000000-000000-000000-000000-000000-000000-000000-000000-000000-000000-000000-000000-000000-000000-000000-000000-000000,950-978100-00000-00000-0000-0000-000-000-000-000-000-000,EAST HAIDA GWAII,PKE-10,PKE,Current,41982,HG,HStr,HG+HStr
156,SOUTH COVE CREEK,,1636,52.21310844,-131.1221287,Stream,950-379421-000000-000000-000000-000000-000000-000000-000000-000000-000000-000000-000000-000000-000000-000000-000000-000000-000000-000000-000000,950-380200-00000-00000-0000-0000-000-000-000-000-000-000,EAST HAIDA GWAII,PKE-10,PKE,Current,43067,HG,HStr,HG+HStr
157,SURPRISE CREEK,,1629,52.26281048,-131.2193333,Stream,950-332221-000000-000000-000000-000000-000000-000000-000000-000000-000000-000000-000000-000000-000000-000000-000000-000000-000000-000000-000000,950-331800-00000-00000-0000-0000-000-000-000-000-000-000,EAST HAIDA GWAII,PKE-10,PKE,Current,43032,HG,HStr,HG+HStr
158,TALUNKWAN CREEK,,1700,52.84562822,-131.8026715,Stream,955-646690-323179-000000-000000-000000-000000-000000-000000-000000-000000-000000-000000-000000-000000-000000-000000-000000-000000-000000-000000,955-125000-32400-00000-0000-0000-000-000-000-000-000-000,EAST HAIDA GWAII,PKE-10,PKE,Current,42052,HG,HStr,HG+HStr
159,TANGLE COVE CREEK,,1625,52.32615502,-131.3524347,Stream,950-313088-000000-000000-000000-000000-000000-000000-000000-000000-000000-000000-000000-000000-000000-000000-000000-000000-000000-000000-000000,950-312000-00000-00000-0000-0000-000-000-000-000-000-000,EAST HAIDA GWAII,PKE-10,PKE,Current,43012,HG,HStr,HG+HStr
160,TARUNDL CREEK,TARUNDL CREEK,1512,53.24127069,-132.1468625,Stream,940-100507-000000-000000-000000-000000-000000-000000-000000-000000-000000-000000-000000-000000-000000-000000-000000-000000-000000-000000-000000,940-105500-00000-00000-0000-0000-000-000-000-000-000-000,EAST HAIDA GWAII,PKE-10,PKE,Current,42532,HG,HStr,HG+HStr
161,THORSEN CREEK,THORSEN CREEK,1595,52.87697789,-131.9495693,Stream,950-110517-000000-000000-000000-000000-000000-000000-000000-000000-000000-000000-000000-000000-000000-000000-000000-000000-000000-000000-000000,950-105500-00000-00000-0000-0000-000-000-000-000-000-000,EAST HAIDA GWAII,PKE-10,PKE,Current,42862,HG,HStr,HG+HStr
162,THURSTON HARBOUR CREEK,,1699,52.84361866,-131.7591007,Stream,955-646690-577975-000000-000000-000000-000000-000000-000000-000000-000000-000000-000000-000000-000000-000000-000000-000000-000000-000000-000000,955-125000-57797-00000-0000-0000-000-000-000-000-000-000,EAST HAIDA GWAII,PKE-10,PKE,Current,42047,HG,HStr,HG+HStr
163,TLELL RIVER,TLELL RIVER,1497,53.61864205,-131.9329335,Stream,940-051976-000000-000000-000000-000000-000000-000000-000000-000000-000000-000000-000000-000000-000000-000000-000000-000000-000000-000000-000000,940-057000-00000-00000-0000-0000-000-000-000-000-000-000,EAST HAIDA GWAII,PKE-10,PKE,Current,42457,HG,HStr,HG+HStr
164,TRAYNOR CREEK,TRAYNOR CREEK,1694,52.90245844,-131.8496477,Stream,955-651227-247206-000000-000000-000000-000000-000000-000000-000000-000000-000000-000000-000000-000000-000000-000000-000000-000000-000000-000000,955-081000-06100-00000-0000-0000-000-000-000-000-000-000,EAST HAIDA GWAII,PKE-10,PKE,Current,42022,HG,HStr,HG+HStr
165,TWO TORRENT CREEK,,1522,53.16289216,-132.1796421,Stream,940-143848-000000-000000-000000-000000-000000-000000-000000-000000-000000-000000-000000-000000-000000-000000-000000-000000-000000-000000-000000,940-148600-00000-00000-0000-0000-000-000-000-000-000-000,EAST HAIDA GWAII,PKE-10,PKE,Current,42582,HG,HStr,HG+HStr
166,WASTE CREEK,,1697,52.99859117,-131.6714822,Stream,955-651227-657935-000000-000000-000000-000000-000000-000000-000000-000000-000000-000000-000000-000000-000000-000000-000000-000000-000000-000000,955-081000-46700-00000-0000-0000-000-000-000-000-000-000,EAST HAIDA GWAII,PKE-10,PKE,Current,42037,HG,HStr,HG+HStr
167,WATERFALL CREEK,WATERFALL CREEK,1591,52.88404624,-131.9833807,Stream,950-103776-000000-000000-000000-000000-000000-000000-000000-000000-000000-000000-000000-000000-000000-000000-000000-000000-000000-000000-000000,950-098600-00000-00000-0000-0000-000-000-000-000-000-000,EAST HAIDA GWAII,PKE-10,PKE,Current,42842,HG,HStr,HG+HStr
168,WINDY BAY CREEK,WINDY BAY CREEK,1709,52.69260836,-131.4580633,Stream,955-627565-594511-000000-000000-000000-000000-000000-000000-000000-000000-000000-000000-000000-000000-000000-000000-000000-000000-000000-000000,955-186000-59600-00000-0000-0000-000-000-000-000-000-000,EAST HAIDA GWAII,PKE-10,PKE,Current,43287,HG,HStr,HG+HStr
169,BONANZA CREEK,,1542,53.41045816,-132.5282073,Stream,940-334105-000000-000000-000000-000000-000000-000000-000000-000000-000000-000000-000000-000000-000000-000000-000000-000000-000000-000000-000000,940-332900-00000-00000-0000-0000-000-000-000-000-000-000,WEST HAIDA GWAII,PKE-11,PKE,Current,41912,HG,WQCI,HG+WQCI
170,BOTANY INLET HEAD CREEK,,1652,52.71382475,-131.9184489,Stream,950-709940-000000-000000-000000-000000-000000-000000-000000-000000-000000-000000-000000-000000-000000-000000-000000-000000-000000-000000-000000,950-708500-00000-00000-0000-0000-000-000-000-000-000-000,WEST HAIDA GWAII,PKE-11,PKE,Current,43147,HG,WQCI,HG+WQCI
171,BOTANY INLET OUTER CREEK,,1651,52.72898972,-131.9456083,Stream,950-707796-000000-000000-000000-000000-000000-000000-000000-000000-000000-000000-000000-000000-000000-000000-000000-000000-000000-000000-000000,950-706200-00000-00000-0000-0000-000-000-000-000-000-000,WEST HAIDA GWAII,PKE-11,PKE,Current,43142,HG,WQCI,HG+WQCI
172,BOTTLE INLET CREEK,,1660,52.92026955,-132.2591667,Stream,950-814052-000000-000000-000000-000000-000000-000000-000000-000000-000000-000000-000000-000000-000000-000000-000000-000000-000000-000000-000000,950-811600-00000-00000-0000-0000-000-000-000-000-000-000,WEST HAIDA GWAII,PKE-11,PKE,Current,43187,HG,WQCI,HG+WQCI
173,BROWNS CABIN CREEK,,1678,53.13285984,-132.3494408,Stream,950-958680-000000-000000-000000-000000-000000-000000-000000-000000-000000-000000-000000-000000-000000-000000-000000-000000-000000-000000-000000,950-956400-00000-00000-0000-0000-000-000-000-000-000-000,WEST HAIDA GWAII,PKE-11,PKE,Current,41942,HG,WQCI,HG+WQCI
174,BUCK CHANNEL CREEK #EIGHT,,1676,53.0960611,-132.5202522,Stream,950-946685-000000-000000-000000-000000-000000-000000-000000-000000-000000-000000-000000-000000-000000-000000-000000-000000-000000-000000-000000,955-951000-01669-00000-0000-0000-000-000-000-000-000-000,WEST HAIDA GWAII,PKE-11,PKE,Current,43237,HG,WQCI,HG+WQCI
175,BUCK CHANNEL CREEK #SIX,,2651,53.09466253,-132.501093,Stream,950-947835-000000-000000-000000-000000-000000-000000-000000-000000-000000-000000-000000-000000-000000-000000-000000-000000-000000-000000-000000,955-951000-05042-00000-0000-0000-000-000-000-000-000-000,WEST HAIDA GWAII,PKE-11,PKE,Current,53135,HG,WQCI,HG+WQCI
176,BUCK CHANNEL CREEK #THREE,,1675,53.10294859,-132.4138376,Stream,955-673628-000741-000000-000000-000000-000000-000000-000000-000000-000000-000000-000000-000000-000000-000000-000000-000000-000000-000000-000000,950-945103-00000-00000-0000-0000-000-000-000-000-000-000,WEST HAIDA GWAII,PKE-11,PKE,Current,43232,HG,WQCI,HG+WQCI
177,BUCK CHANNEL CREEK #TWO,,2342,53.10246721,-132.4069638,Stream,950-953263-000000-000000-000000-000000-000000-000000-000000-000000-000000-000000-000000-000000-000000-000000-000000-000000-000000-000000-000000,950-944987-00000-00000-0000-0000-000-000-000-000-000-000,WEST HAIDA GWAII,PKE-11,PKE,Current,44875,HG,WQCI,HG+WQCI
178,CANOE PASS CREEK,,1677,53.10790057,-132.3894092,Stream,950-954469-000000-000000-000000-000000-000000-000000-000000-000000-000000-000000-000000-000000-000000-000000-000000-000000-000000-000000-000000,950-952000-00000-00000-0000-0000-000-000-000-000-000-000,WEST HAIDA GWAII,PKE-11,PKE,Current,41937,HG,WQCI,HG+WQCI
179,CELESTIAL RIVER,,1551,53.63331429,-132.931438,Stream,940-468060-000000-000000-000000-000000-000000-000000-000000-000000-000000-000000-000000-000000-000000-000000-000000-000000-000000-000000-000000,940-458900-00000-00000-0000-0000-000-000-000-000-000-000,WEST HAIDA GWAII,PKE-11,PKE,Current,40922,HG,WQCI,HG+WQCI
180,COLLISON BAY CREEK,,1633,52.27847822,-131.1575036,Stream,950-357092-000000-000000-000000-000000-000000-000000-000000-000000-000000-000000-000000-000000-000000-000000-000000-000000-000000-000000-000000,950-357100-00000-00000-0000-0000-000-000-000-000-000-000,WEST HAIDA GWAII,PKE-11,PKE,Current,43052,HG,WQCI,HG+WQCI
181,CONE HEAD CREEK,,1532,53.36549727,-132.6927177,Stream,940-293891-000000-000000-000000-000000-000000-000000-000000-000000-000000-000000-000000-000000-000000-000000-000000-000000-000000-000000-000000,940-292500-00000-00000-0000-0000-000-000-000-000-000-000,WEST HAIDA GWAII,PKE-11,PKE,Current,42632,HG,WQCI,HG+WQCI
182,DAWSON HARBOUR CREEK,,1526,53.17187462,-132.4327084,Stream,940-178063-000000-000000-000000-000000-000000-000000-000000-000000-000000-000000-000000-000000-000000-000000-000000-000000-000000-000000-000000,940-181900-00000-00000-0000-0000-000-000-000-000-000-000,WEST HAIDA GWAII,PKE-11,PKE,Current,42602,HG,WQCI,HG+WQCI
183,DAWSON INLET CREEK,,1527,53.22287698,-132.4778102,Stream,940-187392-000000-000000-000000-000000-000000-000000-000000-000000-000000-000000-000000-000000-000000-000000-000000-000000-000000-000000-000000,940-191300-00000-00000-0000-0000-000-000-000-000-000-000,WEST HAIDA GWAII,PKE-11,PKE,Current,42607,HG,WQCI,HG+WQCI
184,DOUGLAS INLET HEAD CREEK,,1662,52.92978897,-132.1685626,Stream,950-842559-000000-000000-000000-000000-000000-000000-000000-000000-000000-000000-000000-000000-000000-000000-000000-000000-000000-000000-000000,950-839900-00000-00000-0000-0000-000-000-000-000-000-000,WEST HAIDA GWAII,PKE-11,PKE,Current,43197,HG,WQCI,HG+WQCI
185,DOUGLAS INLET RIGHT HAND CREEK,,1661,52.92865814,-132.1966721,Stream,950-840897-000000-000000-000000-000000-000000-000000-000000-000000-000000-000000-000000-000000-000000-000000-000000-000000-000000-000000-000000,950-838500-00000-00000-0000-0000-000-000-000-000-000-000,WEST HAIDA GWAII,PKE-11,PKE,Current,43192,HG,WQCI,HG+WQCI
186,EAST NARROWS CREEK,,1680,53.15267202,-132.2826294,Stream,940-151859-000000-000000-000000-000000-000000-000000-000000-000000-000000-000000-000000-000000-000000-000000-000000-000000-000000-000000-000000,950-964129-00000-00000-0000-0000-000-000-000-000-000-000,WEST HAIDA GWAII,PKE-11,PKE,Current,41952,HG,WQCI,HG+WQCI
187,EAST NARROWS DOLPHIN CREEK,,1679,53.15015403,-132.2586904,Stream,940-150370-000000-000000-000000-000000-000000-000000-000000-000000-000000-000000-000000-000000-000000-000000-000000-000000-000000-000000-000000,950-961834-00000-00000-0000-0000-000-000-000-000-000-000,WEST HAIDA GWAII,PKE-11,PKE,Current,41947,HG,WQCI,HG+WQCI
188,FAIRFAX CREEK,FAIRFAX CREEK,1650,52.71762168,-131.9815563,Stream,950-694269-000000-000000-000000-000000-000000-000000-000000-000000-000000-000000-000000-000000-000000-000000-000000-000000-000000-000000-000000,950-692400-00000-00000-0000-0000-000-000-000-000-000-000,WEST HAIDA GWAII,PKE-11,PKE,Current,43137,HG,WQCI,HG+WQCI
189,FAIRFAX OUTER CREEK,,1649,52.73734698,-132.0011617,Stream,950-690941-000000-000000-000000-000000-000000-000000-000000-000000-000000-000000-000000-000000-000000-000000-000000-000000-000000-000000-000000,950-689000-00000-00000-0000-0000-000-000-000-000-000-000,WEST HAIDA GWAII,PKE-11,PKE,Current,43132,HG,WQCI,HG+WQCI
190,FLAMINGO INLET CREEK,,1646,52.22324735,-131.3473692,Stream,950-481148-000000-000000-000000-000000-000000-000000-000000-000000-000000-000000-000000-000000-000000-000000-000000-000000-000000-000000-000000,950-485233-00000-00000-0000-0000-000-000-000-000-000-000,WEST HAIDA GWAII,PKE-11,PKE,Current,43117,HG,WQCI,HG+WQCI
191,FLAT CREEK,FLAT CREEK,1654,52.79116073,-131.9656837,Stream,950-720362-000000-000000-000000-000000-000000-000000-000000-000000-000000-000000-000000-000000-000000-000000-000000-000000-000000-000000-000000,950-719300-00000-00000-0000-0000-000-000-000-000-000-000,WEST HAIDA GWAII,PKE-11,PKE,Current,43157,HG,WQCI,HG+WQCI
192,GIVENCHY ANCHORAGE CREEK,,1530,53.32508963,-132.5509878,Stream,940-262407-000000-000000-000000-000000-000000-000000-000000-000000-000000-000000-000000-000000-000000-000000-000000-000000-000000-000000-000000,940-262317-00000-00000-0000-0000-000-000-000-000-000-000,WEST HAIDA GWAII,PKE-11,PKE,Current,42622,HG,WQCI,HG+WQCI
193,GOLD HARBOUR CREEK,,1663,52.93412712,-132.1316078,Stream,950-854211-000000-000000-000000-000000-000000-000000-000000-000000-000000-000000-000000-000000-000000-000000-000000-000000-000000-000000-000000,950-851900-00000-00000-0000-0000-000-000-000-000-000-000,WEST HAIDA GWAII,PKE-11,PKE,Current,43202,HG,WQCI,HG+WQCI
194,GOSKI BAY CREEK,,1648,52.43990233,-131.5507965,Stream,950-561696-000000-000000-000000-000000-000000-000000-000000-000000-000000-000000-000000-000000-000000-000000-000000-000000-000000-000000-000000,950-559700-00000-00000-0000-0000-000-000-000-000-000-000,WEST HAIDA GWAII,PKE-11,PKE,Current,43127,HG,WQCI,HG+WQCI
195,GREGORY CREEK,,1541,53.40344973,-132.5203675,Stream,940-332509-000000-000000-000000-000000-000000-000000-000000-000000-000000-000000-000000-000000-000000-000000-000000-000000-000000-000000-000000,940-331100-00000-00000-0000-0000-000-000-000-000-000-000,WEST HAIDA GWAII,PKE-11,PKE,Current,41907,HG,WQCI,HG+WQCI
196,INDIAN BAY CREEK,,1533,53.34134699,-132.5150048,Stream,940-306409-000000-000000-000000-000000-000000-000000-000000-000000-000000-000000-000000-000000-000000-000000-000000-000000-000000-000000-000000,940-305100-00000-00000-0000-0000-000-000-000-000-000-000,WEST HAIDA GWAII,PKE-11,PKE,Current,42637,HG,WQCI,HG+WQCI
197,INSKIP CREEK,,1669,53.00905619,-132.2318358,Stream,950-885188-000000-000000-000000-000000-000000-000000-000000-000000-000000-000000-000000-000000-000000-000000-000000-000000-000000-000000-000000,950-882800-00000-00000-0000-0000-000-000-000-000-000-000,WEST HAIDA GWAII,PKE-11,PKE,Current,42672,HG,WQCI,HG+WQCI
198,KAISUN CREEK,,1673,53.04500178,-132.4386014,Stream,950-918214-000000-000000-000000-000000-000000-000000-000000-000000-000000-000000-000000-000000-000000-000000-000000-000000-000000-000000-000000,950-915700-00000-00000-0000-0000-000-000-000-000-000-000,WEST HAIDA GWAII,PKE-11,PKE,Current,42692,HG,WQCI,HG+WQCI
199,KANO INLET CREEK - OUTER,,1529,53.28806444,-132.6388879,Stream,940-250044-000000-000000-000000-000000-000000-000000-000000-000000-000000-000000-000000-000000-000000-000000-000000-000000-000000-000000-000000,940-251500-00000-00000-0000-0000-000-000-000-000-000-000,WEST HAIDA GWAII,PKE-11,PKE,Current,42617,HG,WQCI,HG+WQCI
200,KANO INLET HEAD CREEK,,1531,53.33295269,-132.5547574,Stream,940-263173-000000-000000-000000-000000-000000-000000-000000-000000-000000-000000-000000-000000-000000-000000-000000-000000-000000-000000-000000,940-264700-00000-00000-0000-0000-000-000-000-000-000-000,WEST HAIDA GWAII,PKE-11,PKE,Current,42627,HG,WQCI,HG+WQCI
201,KOOTENAY INLET NORTH ARM CREEK,,1659,52.87832659,-132.1981989,Stream,950-796858-000000-000000-000000-000000-000000-000000-000000-000000-000000-000000-000000-000000-000000-000000-000000-000000-000000-000000-000000,950-794000-00000-00000-0000-0000-000-000-000-000-000-000,WEST HAIDA GWAII,PKE-11,PKE,Current,43182,HG,WQCI,HG+WQCI
202,KOOTENAY INLET SOUTH ARM CREEK,,1658,52.84397609,-132.151785,Stream,950-789429-000000-000000-000000-000000-000000-000000-000000-000000-000000-000000-000000-000000-000000-000000-000000-000000-000000-000000-000000,950-786400-00000-00000-0000-0000-000-000-000-000-000-000,WEST HAIDA GWAII,PKE-11,PKE,Current,43177,HG,WQCI,HG+WQCI
203,LOMGON BAY CREEK,,1657,52.78671575,-132.0985713,Stream,950-746746-000000-000000-000000-000000-000000-000000-000000-000000-000000-000000-000000-000000-000000-000000-000000-000000-000000-000000-000000,950-746200-00000-00000-0000-0000-000-000-000-000-000-000,WEST HAIDA GWAII,PKE-11,PKE,Current,43172,HG,WQCI,HG+WQCI
204,LOUSCOONE INLET CREEK,,1642,52.2434398,-131.2941613,Stream,950-437545-000000-000000-000000-000000-000000-000000-000000-000000-000000-000000-000000-000000-000000-000000-000000-000000-000000-000000-000000,950-439300-00000-00000-0000-0000-000-000-000-000-000-000,WEST HAIDA GWAII,PKE-11,PKE,Current,43097,HG,WQCI,HG+WQCI
205,MACE CREEK,MACE CREEK,1550,53.60700899,-132.8226531,Stream,940-457436-000000-000000-000000-000000-000000-000000-000000-000000-000000-000000-000000-000000-000000-000000-000000-000000-000000-000000-000000,940-448400-00000-00000-0000-0000-000-000-000-000-000-000,WEST HAIDA GWAII,PKE-11,PKE,Current,40917,HG,WQCI,HG+WQCI
206,MCKENZIE COVE CREEK,,1672,53.04762946,-132.3376051,Stream,950-909498-000000-000000-000000-000000-000000-000000-000000-000000-000000-000000-000000-000000-000000-000000-000000-000000-000000-000000-000000,950-907200-00000-00000-0000-0000-000-000-000-000-000-000,WEST HAIDA GWAII,PKE-11,PKE,Current,42687,HG,WQCI,HG+WQCI
207,MERCER CREEK,,1548,53.58313923,-132.9016718,Stream,940-448869-000000-000000-000000-000000-000000-000000-000000-000000-000000-000000-000000-000000-000000-000000-000000-000000-000000-000000-000000,940-440100-00000-00000-0000-0000-000-000-000-000-000-000,WEST HAIDA GWAII,PKE-11,PKE,Current,40907,HG,WQCI,HG+WQCI
208,MORESBY CREEK,MORESBY CREEK,1664,52.93705815,-132.133423,Stream,950-854534-000000-000000-000000-000000-000000-000000-000000-000000-000000-000000-000000-000000-000000-000000-000000-000000-000000-000000-000000,950-852200-00000-00000-0000-0000-000-000-000-000-000-000,WEST HAIDA GWAII,PKE-11,PKE,Current,43207,HG,WQCI,HG+WQCI
209,MOUNTAIN CREEK,MOUNTAIN CREEK,1536,53.30901317,-132.4234323,Stream,940-317919-000000-000000-000000-000000-000000-000000-000000-000000-000000-000000-000000-000000-000000-000000-000000-000000-000000-000000-000000,940-316300-00000-00000-0000-0000-000-000-000-000-000-000,WEST HAIDA GWAII,PKE-11,PKE,Current,42652,HG,WQCI,HG+WQCI
210,MUDGE CREEK,,1665,52.95889412,-132.1134659,Stream,950-864640-000000-000000-000000-000000-000000-000000-000000-000000-000000-000000-000000-000000-000000-000000-000000-000000-000000-000000-000000,950-861908-00000-00000-0000-0000-000-000-000-000-000-000,WEST HAIDA GWAII,PKE-11,PKE,Current,43212,HG,WQCI,HG+WQCI
211,NESTO INLET CREEK INNER,,1547,53.56003712,-132.9064393,Stream,940-422646-000000-000000-000000-000000-000000-000000-000000-000000-000000-000000-000000-000000-000000-000000-000000-000000-000000-000000-000000,940-425240-00000-00000-0000-0000-000-000-000-000-000-000,WEST HAIDA GWAII,PKE-11,PKE,Current,40902,HG,WQCI,HG+WQCI
212,NESTO INLET OUTER CREEK,,1546,53.52145958,-132.8466848,Stream,940-409019-000000-000000-000000-000000-000000-000000-000000-000000-000000-000000-000000-000000-000000-000000-000000-000000-000000-000000-000000,940-403100-00000-00000-0000-0000-000-000-000-000-000-000,WEST HAIDA GWAII,PKE-11,PKE,Current,41932,HG,WQCI,HG+WQCI
213,NORTH ARM CREEK RIGHT HAND,,1523,53.16875847,-132.3110759,Stream,940-154272-000000-000000-000000-000000-000000-000000-000000-000000-000000-000000-000000-000000-000000-000000-000000-000000-000000-000000-000000,940-158327-00000-00000-0000-0000-000-000-000-000-000-000,WEST HAIDA GWAII,PKE-11,PKE,Current,42587,HG,WQCI,HG+WQCI
214,NORTH ARM HEAD CREEK,,1524,53.18635457,-132.33945,Stream,940-157630-000000-000000-000000-000000-000000-000000-000000-000000-000000-000000-000000-000000-000000-000000-000000-000000-000000-000000-000000,940-161700-00000-00000-0000-0000-000-000-000-000-000-000,WEST HAIDA GWAII,PKE-11,PKE,Current,42592,HG,WQCI,HG+WQCI
215,OTARD CREEK,OTARD CREEK,1555,53.7703992,-132.9924885,Stream,940-528104-000000-000000-000000-000000-000000-000000-000000-000000-000000-000000-000000-000000-000000-000000-000000-000000-000000-000000-000000,940-516500-00000-00000-0000-0000-000-000-000-000-000-000,WEST HAIDA GWAII,PKE-11,PKE,Current,40942,HG,WQCI,HG+WQCI
216,PEEL INLET 1ST LEFT HAND CREEK,,1668,52.99851562,-132.1376683,Stream,950-879515-000000-000000-000000-000000-000000-000000-000000-000000-000000-000000-000000-000000-000000-000000-000000-000000-000000-000000-000000,950-877000-00000-00000-0000-0000-000-000-000-000-000-000,WEST HAIDA GWAII,PKE-11,PKE,Current,42667,HG,WQCI,HG+WQCI
217,PEEL INLET 2ND LEFT HAND CREEK,,1667,52.98842083,-132.108845,Stream,950-877534-000000-000000-000000-000000-000000-000000-000000-000000-000000-000000-000000-000000-000000-000000-000000-000000-000000-000000-000000,950-875100-00000-00000-0000-0000-000-000-000-000-000-000,WEST HAIDA GWAII,PKE-11,PKE,Current,43222,HG,WQCI,HG+WQCI
218,PEEL INLET HEAD CREEK,,1666,52.96530877,-132.073168,Stream,950-874527-000000-000000-000000-000000-000000-000000-000000-000000-000000-000000-000000-000000-000000-000000-000000-000000-000000-000000-000000,950-872100-00000-00000-0000-0000-000-000-000-000-000-000,WEST HAIDA GWAII,PKE-11,PKE,Current,43217,HG,WQCI,HG+WQCI
219,PORT LOUIS CREEK OUTER,,1554,53.70878724,-132.9493832,Stream,940-516040-000000-000000-000000-000000-000000-000000-000000-000000-000000-000000-000000-000000-000000-000000-000000-000000-000000-000000-000000,940-503500-00000-00000-0000-0000-000-000-000-000-000-000,WEST HAIDA GWAII,PKE-11,PKE,Current,40937,HG,WQCI,HG+WQCI
220,RENNELL CREEK,,1535,53.29102256,-132.4277111,Stream,940-315312-000000-000000-000000-000000-000000-000000-000000-000000-000000-000000-000000-000000-000000-000000-000000-000000-000000-000000-000000,940-313900-00000-00000-0000-0000-000-000-000-000-000-000,WEST HAIDA GWAII,PKE-11,PKE,Current,42647,HG,WQCI,HG+WQCI
221,RILEY CREEK,RILEY CREEK,1540,53.38696584,-132.5165586,Stream,940-329480-000000-000000-000000-000000-000000-000000-000000-000000-000000-000000-000000-000000-000000-000000-000000-000000-000000-000000-000000,940-328100-00000-00000-0000-0000-000-000-000-000-000-000,WEST HAIDA GWAII,PKE-11,PKE,Current,41902,HG,WQCI,HG+WQCI
222,ROCKRUN CREEK,ROCKRUN CREEK,1537,53.31948823,-132.415128,Stream,940-319698-000000-000000-000000-000000-000000-000000-000000-000000-000000-000000-000000-000000-000000-000000-000000-000000-000000-000000-000000,940-318000-00000-00000-0000-0000-000-000-000-000-000-000,WEST HAIDA GWAII,PKE-11,PKE,Current,42657,HG,WQCI,HG+WQCI
223,SEAL INLET CREEK,,1545,53.5378964,-132.7339727,Stream,940-379466-000000-000000-000000-000000-000000-000000-000000-000000-000000-000000-000000-000000-000000-000000-000000-000000-000000-000000-000000,940-376600-00000-00000-0000-0000-000-000-000-000-000-000,WEST HAIDA GWAII,PKE-11,PKE,Current,41927,HG,WQCI,HG+WQCI
224,SECURITY INLET LEFT HAND CREEK,,1671,53.06270489,-132.2878925,Stream,950-903712-000000-000000-000000-000000-000000-000000-000000-000000-000000-000000-000000-000000-000000-000000-000000-000000-000000-000000-000000,950-901300-00000-00000-0000-0000-000-000-000-000-000-000,WEST HAIDA GWAII,PKE-11,PKE,Current,42682,HG,WQCI,HG+WQCI
225,SECURITY INLET RIGHT HAND CREEK,,1670,53.05723718,-132.2574332,Stream,950-901846-000000-000000-000000-000000-000000-000000-000000-000000-000000-000000-000000-000000-000000-000000-000000-000000-000000-000000-000000,950-899300-00000-00000-0000-0000-000-000-000-000-000-000,WEST HAIDA GWAII,PKE-11,PKE,Current,42677,HG,WQCI,HG+WQCI
226,SHIELDS CREEK,SHIELDS CREEK,1538,53.32607093,-132.4143243,Stream,940-320391-000000-000000-000000-000000-000000-000000-000000-000000-000000-000000-000000-000000-000000-000000-000000-000000-000000-000000-000000,940-318700-00000-00000-0000-0000-000-000-000-000-000-000,WEST HAIDA GWAII,PKE-11,PKE,Current,42662,HG,WQCI,HG+WQCI
227,STAKI CREEK,,1645,52.24617285,-131.3755351,Stream,950-490325-000000-000000-000000-000000-000000-000000-000000-000000-000000-000000-000000-000000-000000-000000-000000-000000-000000-000000-000000,950-481684-00000-00000-0000-0000-000-000-000-000-000-000,WEST HAIDA GWAII,PKE-11,PKE,Current,43112,HG,WQCI,HG+WQCI
228,STEEL CREEK,STEEL CREEK,1553,53.70130445,-132.9272932,Stream,940-514491-000000-000000-000000-000000-000000-000000-000000-000000-000000-000000-000000-000000-000000-000000-000000-000000-000000-000000-000000,940-502200-00000-00000-0000-0000-000-000-000-000-000-000,WEST HAIDA GWAII,PKE-11,PKE,Current,40932,HG,WQCI,HG+WQCI
229,TARTU INLET HEAD CREEK,,1544,53.49855177,-132.6748739,Stream,940-352922-000000-000000-000000-000000-000000-000000-000000-000000-000000-000000-000000-000000-000000-000000-000000-000000-000000-000000-000000,940-351500-00000-00000-0000-0000-000-000-000-000-000-000,WEST HAIDA GWAII,PKE-11,PKE,Current,41922,HG,WQCI,HG+WQCI
230,TARTU INLET OUTER CREEK,,1543,53.47514859,-132.654733,Stream,940-349858-000000-000000-000000-000000-000000-000000-000000-000000-000000-000000-000000-000000-000000-000000-000000-000000-000000-000000-000000,940-348300-00000-00000-0000-0000-000-000-000-000-000-000,WEST HAIDA GWAII,PKE-11,PKE,Current,41917,HG,WQCI,HG+WQCI
231,TASU CREEK,TASU CREEK,1656,52.85812004,-132.0839474,Stream,950-735521-000000-000000-000000-000000-000000-000000-000000-000000-000000-000000-000000-000000-000000-000000-000000-000000-000000-000000-000000,950-734400-00000-00000-0000-0000-000-000-000-000-000-000,WEST HAIDA GWAII,PKE-11,PKE,Current,43167,HG,WQCI,HG+WQCI
232,WEST NARROWS CREEK,,1525,53.15400081,-132.3551543,Stream,940-162890-000000-000000-000000-000000-000000-000000-000000-000000-000000-000000-000000-000000-000000-000000-000000-000000-000000-000000-000000,940-167100-00000-00000-0000-0000-000-000-000-000-000-000,WEST HAIDA GWAII,PKE-11,PKE,Current,42597,HG,WQCI,HG+WQCI
233,WILSON BAY CREEK,,1653,52.7550143,-131.9398352,Stream,950-716592-000000-000000-000000-000000-000000-000000-000000-000000-000000-000000-000000-000000-000000-000000-000000-000000-000000-000000-000000,950-715325-00000-00000-0000-0000-000-000-000-000-000-000,WEST HAIDA GWAII,PKE-11,PKE,Current,43152,HG,WQCI,HG+WQCI
234,YAKOUN TRAIL CREEK,,1539,53.34306744,-132.4273877,Stream,940-322190-000000-000000-000000-000000-000000-000000-000000-000000-000000-000000-000000-000000-000000-000000-000000-000000-000000-000000-000000,940-320500-00000-00000-0000-0000-000-000-000-000-000-000,WEST HAIDA GWAII,PKE-11,PKE,Current,41897,HG,WQCI,HG+WQCI
235,BROWN BEAR CREEK,BROWN BEAR CREEK,657,55.78011664,-128.8679271,Stream,500-374315-000000-000000-000000-000000-000000-000000-000000-000000-000000-000000-000000-000000-000000-000000-000000-000000-000000-000000-000000,500-377100-00000-00000-0000-0000-000-000-000-000-000-000,UPPER NASS,PKE-12,PKE,Current,48291,UNR,NSKEst,UNR+NSKEst
236,CRANBERRY RIVER,CRANBERRY RIVER,663,55.5349591,-128.8419229,Stream,500-293978-000000-000000-000000-000000-000000-000000-000000-000000-000000-000000-000000-000000-000000-000000-000000-000000-000000-000000-000000,530-000000-00000-00000-0000-0000-000-000-000-000-000-000,UPPER NASS,PKE-12,PKE,Current,48321,UNR,NSKEst,UNR+NSKEst
237,KINSKUCH RIVER,KINSKUCH RIVER,662,55.50523737,-128.9135115,Stream,500-279029-000000-000000-000000-000000-000000-000000-000000-000000-000000-000000-000000-000000-000000-000000-000000-000000-000000-000000-000000,520-000000-00000-00000-0000-0000-000-000-000-000-000-000,UPPER NASS,PKE-12,PKE,Current,48316,UNR,NSKEst,UNR+NSKEst
238,KITEEN RIVER,KITEEN RIVER,664,55.51361836,-128.8102498,Stream,500-293978-033373-000000-000000-000000-000000-000000-000000-000000-000000-000000-000000-000000-000000-000000-000000-000000-000000-000000-000000,530-032200-00000-00000-0000-0000-000-000-000-000-000-000,UPPER NASS,PKE-12,PKE,Current,48326,UNR,NSKEst,UNR+NSKEst
239,MEZIADIN RIVER,MEZIADIN RIVER,7990598,56.02365783,-129.1480702,Stream,500-462445-000000-000000-000000-000000-000000-000000-000000-000000-000000-000000-000000-000000-000000-000000-000000-000000-000000-000000-000000,550-000000-00000-00000-0000-0000-000-000-000-000-000-000,UPPER NASS,PKE-12,PKE,Current,48336,UNR,NSKEst,UNR+NSKEst
240,TCHITIN RIVER,TCHITIN RIVER,656,55.47823835,-128.9497379,Stream,500-267403-000000-000000-000000-000000-000000-000000-000000-000000-000000-000000-000000-000000-000000-000000-000000-000000-000000-000000-000000,500-271900-00000-00000-0000-0000-000-000-000-000-000-000,UPPER NASS,PKE-12,PKE,Current,48286,UNR,NSKEst,UNR+NSKEst
241,NAKINA RIVER,NAKINA RIVER,2216,58.90428766,-133.1458912,Stream,700-999247-000000-000000-000000-000000-000000-000000-000000-000000-000000-000000-000000-000000-000000-000000-000000-000000-000000-000000-000000,790-000000-00000-00000-0000-0000-000-000-000-000-000-000,TRANSBOUNDARY FJORDS,PKE-13,PKE,Current,45157,Taku,TBFj,Taku+TBFj
242,AMAI CREEK,AMAI CREEK,1410,50.02348098,-127.0772848,Stream,930-651588-000000-000000-000000-000000-000000-000000-000000-000000-000000-000000-000000-000000-000000-000000-000000-000000-000000-000000-000000,930-653300-00000-00000-0000-0000-000-000-000-000-000-000,WEST VANCOUVER ISLAND,PKE-2,PKE,Current,41839,WVI,WVI,WVI+WVI
243,APPLE CREEK,APPLE CREEK,1389,49.83173399,-126.9050211,Stream,935-371895-564692-000000-000000-000000-000000-000000-000000-000000-000000-000000-000000-000000-000000-000000-000000-000000-000000-000000-000000,935-483000-57600-00000-0000-0000-000-000-000-000-000-000,WEST VANCOUVER ISLAND,PKE-2,PKE,Current,41629,WVI,WVI,WVI+WVI
244,ARTLISH RIVER,ARTLISH RIVER,1413,50.1150961,-127.0875277,Stream,930-671111-000000-000000-000000-000000-000000-000000-000000-000000-000000-000000-000000-000000-000000-000000-000000-000000-000000-000000-000000,930-671100-00000-00000-0000-0000-000-000-000-000-000-000,WEST VANCOUVER ISLAND,PKE-2,PKE,Current,41869,WVI,WVI,WVI+WVI
245,ATLEO RIVER,ATLEO RIVER,1336,49.36991725,-126.0583364,Stream,930-400575-000000-000000-000000-000000-000000-000000-000000-000000-000000-000000-000000-000000-000000-000000-000000-000000-000000-000000-000000,930-403700-00000-00000-0000-0000-000-000-000-000-000-000,WEST VANCOUVER ISLAND,PKE-2,PKE,Current,41129,WVI,WVI,WVI+WVI
246,BARR CREEK,BARR CREEK,1393,49.91384681,-126.7838232,Stream,930-574813-000000-000000-000000-000000-000000-000000-000000-000000-000000-000000-000000-000000-000000-000000-000000-000000-000000-000000-000000,930-577600-00000-00000-0000-0000-000-000-000-000-000-000,WEST VANCOUVER ISLAND,PKE-2,PKE,Current,41669,WVI,WVI,WVI+WVI
247,BATTLE BAY RIVER,,1429,50.1213242,-127.5867074,Stream,930-738595-000000-000000-000000-000000-000000-000000-000000-000000-000000-000000-000000-000000-000000-000000-000000-000000-000000-000000-000000,930-739000-00000-00000-0000-0000-000-000-000-000-000-000,WEST VANCOUVER ISLAND,PKE-2,PKE,Current,39694,WVI,WVI,WVI+WVI
248,BEDWELL RIVER,BEDWELL RIVER,7990630,49.38831365,-125.7596205,Stream,930-350962-000000-000000-000000-000000-000000-000000-000000-000000-000000-000000-000000-000000-000000-000000-000000-000000-000000-000000-000000,930-355300-00000-00000-0000-0000-000-000-000-000-000-000,WEST VANCOUVER ISLAND,PKE-2,PKE,Current,45186,WVI,WVI,WVI+WVI
249,BEDWELL RIVER,BEDWELL RIVER,1327,49.36425733,-125.7768433,Stream,930-350962-000000-000000-000000-000000-000000-000000-000000-000000-000000-000000-000000-000000-000000-000000-000000-000000-000000-000000-000000,930-355300-00000-00000-0000-0000-000-000-000-000-000-000,WEST VANCOUVER ISLAND,PKE-2,PKE,Current,52314,WVI,WVI,WVI+WVI
250,BRODICK CREEK,BRODICK CREEK,1390,49.84504323,-126.8993677,Stream,935-371895-585160-000000-000000-000000-000000-000000-000000-000000-000000-000000-000000-000000-000000-000000-000000-000000-000000-000000-000000,935-483000-59300-00000-0000-0000-000-000-000-000-000-000,WEST VANCOUVER ISLAND,PKE-2,PKE,Current,41639,WVI,WVI,WVI+WVI
251,BURMAN RIVER,BURMAN RIVER,1356,49.60761042,-126.0461614,Stream,930-504218-000000-000000-000000-000000-000000-000000-000000-000000-000000-000000-000000-000000-000000-000000-000000-000000-000000-000000-000000,930-507400-00000-00000-0000-0000-000-000-000-000-000-000,WEST VANCOUVER ISLAND,PKE-2,PKE,Current,41324,WVI,WVI,WVI+WVI
252,CANTON CREEK,CANTON CREEK,1370,49.79602081,-126.4734215,Stream,930-537619-000000-000000-000000-000000-000000-000000-000000-000000-000000-000000-000000-000000-000000-000000-000000-000000-000000-000000-000000,930-539800-00000-00000-0000-0000-000-000-000-000-000-000,WEST VANCOUVER ISLAND,PKE-2,PKE,Current,41444,WVI,WVI,WVI+WVI
253,CARNATION CREEK,CARNATION CREEK,1254,48.91360195,-125.0037843,Stream,930-113555-000000-000000-000000-000000-000000-000000-000000-000000-000000-000000-000000-000000-000000-000000-000000-000000-000000-000000-000000,930-112200-00000-00000-0000-0000-000-000-000-000-000-000,WEST VANCOUVER ISLAND,PKE-2,PKE,Current,40474,WVI,WVI,WVI+WVI
254,CHAMISS CREEK,CHAMISS CREEK,1422,50.07917039,-127.2889006,Stream,930-700522-000000-000000-000000-000000-000000-000000-000000-000000-000000-000000-000000-000000-000000-000000-000000-000000-000000-000000-000000,930-700400-00000-00000-0000-0000-000-000-000-000-000-000,WEST VANCOUVER ISLAND,PKE-2,PKE,Current,39624,WVI,WVI,WVI+WVI
255,CHINA CREEK,CHINA CREEK,1259,49.15290903,-124.7905115,Stream,930-133780-000000-000000-000000-000000-000000-000000-000000-000000-000000-000000-000000-000000-000000-000000-000000-000000-000000-000000-000000,930-132300-00000-00000-0000-0000-000-000-000-000-000-000,WEST VANCOUVER ISLAND,PKE-2,PKE,Current,40524,WVI,WVI,WVI+WVI
256,CHUM CREEK,,1401,49.96827295,-126.9457738,Stream,930-602577-000000-000000-000000-000000-000000-000000-000000-000000-000000-000000-000000-000000-000000-000000-000000-000000-000000-000000-000000,930-605500-00000-00000-0000-0000-000-000-000-000-000-000,WEST VANCOUVER ISLAND,PKE-2,PKE,Current,41749,WVI,WVI,WVI+WVI
257,CLANNINICK CREEK,CLANNINICK CREEK,1425,50.04141744,-127.4114013,Stream,930-712616-000000-000000-000000-000000-000000-000000-000000-000000-000000-000000-000000-000000-000000-000000-000000-000000-000000-000000-000000,930-713300-00000-00000-0000-0000-000-000-000-000-000-000,WEST VANCOUVER ISLAND,PKE-2,PKE,Current,39654,WVI,WVI,WVI+WVI
258,CLAYOQUOT RIVER - UPPER,CLAYOQUOT RIVER,1311,49.20125801,-125.5126189,Stream Segment,930-302211-132423-000000-000000-000000-000000-000000-000000-000000-000000-000000-000000-000000-000000-000000-000000-000000-000000-000000-000000,930-306400-13900-00000-0000-0000-000-000-000-000-000-000,WEST VANCOUVER ISLAND,PKE-2,PKE,Current,52159,WVI,WVI,WVI+WVI
259,CONUMA RIVER,CONUMA RIVER,1369,49.79574855,-126.438553,Stream,930-536074-000000-000000-000000-000000-000000-000000-000000-000000-000000-000000-000000-000000-000000-000000-000000-000000-000000-000000-000000,930-538500-00000-00000-0000-0000-000-000-000-000-000-000,WEST VANCOUVER ISLAND,PKE-2,PKE,Current,41434,WVI,WVI,WVI+WVI
260,COUGAR CREEK,COUGAR CREEK,1366,49.72382597,-126.4560644,Stream,930-527461-000000-000000-000000-000000-000000-000000-000000-000000-000000-000000-000000-000000-000000-000000-000000-000000-000000-000000-000000,930-530500-00000-00000-0000-0000-000-000-000-000-000-000,WEST VANCOUVER ISLAND,PKE-2,PKE,Current,41409,WVI,WVI,WVI+WVI
261,CYPRE RIVER,CYPRE RIVER,1329,49.27728084,-125.9196799,Stream,930-365210-000000-000000-000000-000000-000000-000000-000000-000000-000000-000000-000000-000000-000000-000000-000000-000000-000000-000000-000000,930-368500-00000-00000-0000-0000-000-000-000-000-000-000,WEST VANCOUVER ISLAND,PKE-2,PKE,Current,52334,WVI,WVI,WVI+WVI
262,DESERTED CREEK,,1372,49.75542063,-126.5099253,Stream,930-545884-000000-000000-000000-000000-000000-000000-000000-000000-000000-000000-000000-000000-000000-000000-000000-000000-000000-000000-000000,930-548100-00000-00000-0000-0000-000-000-000-000-000-000,WEST VANCOUVER ISLAND,PKE-2,PKE,Current,41464,WVI,WVI,WVI+WVI
263,EASY CREEK,,1419,50.12821162,-127.3111755,Stream,930-691582-000000-000000-000000-000000-000000-000000-000000-000000-000000-000000-000000-000000-000000-000000-000000-000000-000000-000000-000000,930-691300-00000-00000-0000-0000-000-000-000-000-000-000,WEST VANCOUVER ISLAND,PKE-2,PKE,Current,40884,WVI,WVI,WVI+WVI
264,EFFINGHAM RIVER,EFFINGHAM RIVER,1279,49.09534128,-125.200767,Stream,930-191124-000000-000000-000000-000000-000000-000000-000000-000000-000000-000000-000000-000000-000000-000000-000000-000000-000000-000000-000000,930-196400-00000-00000-0000-0000-000-000-000-000-000-000,WEST VANCOUVER ISLAND,PKE-2,PKE,Current,40704,WVI,WVI,WVI+WVI
265,EHATISAHT CREEK,EHATISAHT CREEK,1398,49.8753618,-126.8534275,Stream,930-586780-000000-000000-000000-000000-000000-000000-000000-000000-000000-000000-000000-000000-000000-000000-000000-000000-000000-000000-000000,930-589700-00000-00000-0000-0000-000-000-000-000-000-000,WEST VANCOUVER ISLAND,PKE-2,PKE,Current,41719,WVI,WVI,WVI+WVI
266,ELAINE CREEK,,1420,50.12125435,-127.2985649,Stream,930-692089-000000-000000-000000-000000-000000-000000-000000-000000-000000-000000-000000-000000-000000-000000-000000-000000-000000-000000-000000,930-691900-00000-00000-0000-0000-000-000-000-000-000-000,WEST VANCOUVER ISLAND,PKE-2,PKE,Current,40894,WVI,WVI,WVI+WVI
267,ELIZA CREEK,ELIZA CREEK,1404,49.94287928,-127.0515873,Stream,930-618967-000000-000000-000000-000000-000000-000000-000000-000000-000000-000000-000000-000000-000000-000000-000000-000000-000000-000000-000000,930-621100-00000-00000-0000-0000-000-000-000-000-000-000,WEST VANCOUVER ISLAND,PKE-2,PKE,Current,41779,WVI,WVI,WVI+WVI
268,ESPINOSA CREEK,ESPINOSA CREEK,1400,49.98881716,-126.9442151,Stream,930-601179-000000-000000-000000-000000-000000-000000-000000-000000-000000-000000-000000-000000-000000-000000-000000-000000-000000-000000-000000,930-604000-00000-00000-0000-0000-000-000-000-000-000-000,WEST VANCOUVER ISLAND,PKE-2,PKE,Current,41739,WVI,WVI,WVI+WVI
269,FRANKLIN RIVER,FRANKLIN RIVER,1258,49.10302885,-124.8169583,Stream,930-130606-000000-000000-000000-000000-000000-000000-000000-000000-000000-000000-000000-000000-000000-000000-000000-000000-000000-000000-000000,930-129400-00000-00000-0000-0000-000-000-000-000-000-000,WEST VANCOUVER ISLAND,PKE-2,PKE,Current,40514,WVI,WVI,WVI+WVI
270,GOLD RIVER,GOLD RIVER,1358,49.68114958,-126.1125545,Stream,930-508366-000000-000000-000000-000000-000000-000000-000000-000000-000000-000000-000000-000000-000000-000000-000000-000000-000000-000000-000000,930-511600-00000-00000-0000-0000-000-000-000-000-000-000,WEST VANCOUVER ISLAND,PKE-2,PKE,Current,41344,WVI,WVI,WVI+WVI
271,GORDON RIVER,GORDON RIVER,1238,48.5763729,-124.4146503,Stream,930-056675-000000-000000-000000-000000-000000-000000-000000-000000-000000-000000-000000-000000-000000-000000-000000-000000-000000-000000-000000,930-054700-00000-00000-0000-0000-000-000-000-000-000-000,WEST VANCOUVER ISLAND,PKE-2,PKE,Current,40319,WVI,WVI,WVI+WVI
272,HAMMOND CREEK,,1403,49.94379647,-127.044594,Stream,930-618710-000000-000000-000000-000000-000000-000000-000000-000000-000000-000000-000000-000000-000000-000000-000000-000000-000000-000000-000000,930-620900-00000-00000-0000-0000-000-000-000-000-000-000,WEST VANCOUVER ISLAND,PKE-2,PKE,Current,41769,WVI,WVI,WVI+WVI
273,HENDERSON LAKE,HENDERSON LAKE,1273,49.0283341,-125.0511539,Lake,930-164367-000000-000000-000000-000000-000000-000000-000000-000000-000000-000000-000000-000000-000000-000000-000000-000000-000000-000000-000000,930-162500-00000-00000-0000-0000-000-000-000-000-000-000,WEST VANCOUVER ISLAND,PKE-2,PKE,Current,40644,WVI,WVI,WVI+WVI
274,HOISS CREEK,HOISS CREEK,1373,49.69694686,-126.5656996,Stream,930-553866-000000-000000-000000-000000-000000-000000-000000-000000-000000-000000-000000-000000-000000-000000-000000-000000-000000-000000-000000,930-556300-00000-00000-0000-0000-000-000-000-000-000-000,WEST VANCOUVER ISLAND,PKE-2,PKE,Current,41474,WVI,WVI,WVI+WVI
275,HOUSTON RIVER,HOUSTON RIVER,1354,49.63510629,-126.3027051,Stream,930-494183-000000-000000-000000-000000-000000-000000-000000-000000-000000-000000-000000-000000-000000-000000-000000-000000-000000-000000-000000,930-497700-00000-00000-0000-0000-000-000-000-000-000-000,WEST VANCOUVER ISLAND,PKE-2,PKE,Current,41304,WVI,WVI,WVI+WVI
276,ICE RIVER,ICE RIVER,1343,49.47413788,-126.2305348,Stream,930-423523-000000-000000-000000-000000-000000-000000-000000-000000-000000-000000-000000-000000-000000-000000-000000-000000-000000-000000-000000,930-426900-00000-00000-0000-0000-000-000-000-000-000-000,WEST VANCOUVER ISLAND,PKE-2,PKE,Current,41194,WVI,WVI,WVI+WVI
277,INNER BASIN RIVER (RANSOM),,1385,49.79651901,-126.7446332,Stream,935-371895-335680-000000-000000-000000-000000-000000-000000-000000-000000-000000-000000-000000-000000-000000-000000-000000-000000-000000-000000,935-483000-37000-00000-0000-0000-000-000-000-000-000-000,WEST VANCOUVER ISLAND,PKE-2,PKE,Current,41589,WVI,WVI,WVI+WVI
278,JACKLAH RIVER,JACKLAH RIVER,1355,49.64681473,-126.1552384,Stream,930-499033-000000-000000-000000-000000-000000-000000-000000-000000-000000-000000-000000-000000-000000-000000-000000-000000-000000-000000-000000,930-502700-00000-00000-0000-0000-000-000-000-000-000-000,WEST VANCOUVER ISLAND,PKE-2,PKE,Current,41314,WVI,WVI,WVI+WVI
279,JANSEN LAKE CREEK,,1421,50.11891865,-127.2944509,Stream,930-692270-000000-000000-000000-000000-000000-000000-000000-000000-000000-000000-000000-000000-000000-000000-000000-000000-000000-000000-000000,930-692100-00000-00000-0000-0000-000-000-000-000-000-000,WEST VANCOUVER ISLAND,PKE-2,PKE,Current,39614,WVI,WVI,WVI+WVI
280,KAOUK RIVER,KAOUK RIVER,1412,50.0635084,-127.0985149,Stream,930-665189-000000-000000-000000-000000-000000-000000-000000-000000-000000-000000-000000-000000-000000-000000-000000-000000-000000-000000-000000,930-665700-00000-00000-0000-0000-000-000-000-000-000-000,WEST VANCOUVER ISLAND,PKE-2,PKE,Current,41859,WVI,WVI,WVI+WVI
281,KAPOOSE CREEK,KAPOOSE CREEK,1407,49.94823143,-127.2208981,Stream,930-637476-000000-000000-000000-000000-000000-000000-000000-000000-000000-000000-000000-000000-000000-000000-000000-000000-000000-000000-000000,930-639800-00000-00000-0000-0000-000-000-000-000-000-000,WEST VANCOUVER ISLAND,PKE-2,PKE,Current,41809,WVI,WVI,WVI+WVI
282,KASHUTL RIVER,KASHUTL RIVER,1418,50.19495862,-127.3098438,Stream,930-687605-000000-000000-000000-000000-000000-000000-000000-000000-000000-000000-000000-000000-000000-000000-000000-000000-000000-000000-000000,930-687400-00000-00000-0000-0000-000-000-000-000-000-000,WEST VANCOUVER ISLAND,PKE-2,PKE,Current,40874,WVI,WVI,WVI+WVI
283,KAUWINCH RIVER,KAUWINCH RIVER,1417,50.14450885,-127.2707541,Stream,930-683984-000000-000000-000000-000000-000000-000000-000000-000000-000000-000000-000000-000000-000000-000000-000000-000000-000000-000000-000000,930-683800-00000-00000-0000-0000-000-000-000-000-000-000,WEST VANCOUVER ISLAND,PKE-2,PKE,Current,40864,WVI,WVI,WVI+WVI
284,KENDRICK CREEK,KENDRICK CREEK,1379,49.72746053,-126.6505712,Stream,935-371895-841754-000000-000000-000000-000000-000000-000000-000000-000000-000000-000000-000000-000000-000000-000000-000000-000000-000000-000000,935-483000-84200-00000-0000-0000-000-000-000-000-000-000,WEST VANCOUVER ISLAND,PKE-2,PKE,Current,41534,WVI,WVI,WVI+WVI
285,KENNEDY RIVER - UPPER,KENNEDY RIVER,1305,49.12740279,-125.4348961,Stream Segment,930-302211-000000-000000-000000-000000-000000-000000-000000-000000-000000-000000-000000-000000-000000-000000-000000-000000-000000-000000-000000,930-306400-00000-00000-0000-0000-000-000-000-000-000-000,WEST VANCOUVER ISLAND,PKE-2,PKE,Current,52104,WVI,WVI,WVI+WVI
286,KLEEPTEE CREEK,KLEEPTEE CREEK,1364,49.66236422,-126.3702565,Stream,930-518027-000000-000000-000000-000000-000000-000000-000000-000000-000000-000000-000000-000000-000000-000000-000000-000000-000000-000000-000000,930-521000-00000-00000-0000-0000-000-000-000-000-000-000,WEST VANCOUVER ISLAND,PKE-2,PKE,Current,41389,WVI,WVI,WVI+WVI
287,LEINER RIVER,LEINER RIVER,1375,49.91188568,-126.643389,Stream,930-564944-000000-000000-000000-000000-000000-000000-000000-000000-000000-000000-000000-000000-000000-000000-000000-000000-000000-000000-000000,930-567600-00000-00000-0000-0000-000-000-000-000-000-000,WEST VANCOUVER ISLAND,PKE-2,PKE,Current,41494,WVI,WVI,WVI+WVI
288,LITTLE ZEBALLOS RIVER,LITTLE ZEBALLOS RIVER,1394,49.95574704,-126.8170348,Stream,930-577097-000000-000000-000000-000000-000000-000000-000000-000000-000000-000000-000000-000000-000000-000000-000000-000000-000000-000000-000000,930-579900-00000-00000-0000-0000-000-000-000-000-000-000,WEST VANCOUVER ISLAND,PKE-2,PKE,Current,41679,WVI,WVI,WVI+WVI
289,LOST SHOE CREEK,LOST SHOE CREEK,1299,49.0028941,-125.6399383,Stream,930-253054-000000-000000-000000-000000-000000-000000-000000-000000-000000-000000-000000-000000-000000-000000-000000-000000-000000-000000-000000,930-260600-00000-00000-0000-0000-000-000-000-000-000-000,WEST VANCOUVER ISLAND,PKE-2,PKE,Current,40824,WVI,WVI,WVI+WVI
290,MALKSOPE RIVER,MALKSOPE RIVER,1426,50.13851576,-127.4228266,Stream,930-721847-000000-000000-000000-000000-000000-000000-000000-000000-000000-000000-000000-000000-000000-000000-000000-000000-000000-000000-000000,930-722200-00000-00000-0000-0000-000-000-000-000-000-000,WEST VANCOUVER ISLAND,PKE-2,PKE,Current,39664,WVI,WVI,WVI+WVI
291,MAMAT CREEK,MAMAT CREEK,1399,49.96029881,-126.9097898,Stream,930-596397-000000-000000-000000-000000-000000-000000-000000-000000-000000-000000-000000-000000-000000-000000-000000-000000-000000-000000-000000,930-599200-00000-00000-0000-0000-000-000-000-000-000-000,WEST VANCOUVER ISLAND,PKE-2,PKE,Current,41729,WVI,WVI,WVI+WVI
292,MARVINAS BAY CREEK,,1380,49.65592776,-126.6272632,Stream,935-371895-898401-000000-000000-000000-000000-000000-000000-000000-000000-000000-000000-000000-000000-000000-000000-000000-000000-000000-000000,935-483000-89500-00000-0000-0000-000-000-000-000-000-000,WEST VANCOUVER ISLAND,PKE-2,PKE,Current,41544,WVI,WVI,WVI+WVI
293,MCCURDY CREEK,MCCURDY CREEK,1363,49.6723095,-126.1883645,Stream,930-511663-000000-000000-000000-000000-000000-000000-000000-000000-000000-000000-000000-000000-000000-000000-000000-000000-000000-000000-000000,930-514500-00000-00000-0000-0000-000-000-000-000-000-000,WEST VANCOUVER ISLAND,PKE-2,PKE,Current,41379,WVI,WVI,WVI+WVI
294,MCKAY COVE CREEK,,1424,50.0469747,-127.3567892,Stream,930-708660-000000-000000-000000-000000-000000-000000-000000-000000-000000-000000-000000-000000-000000-000000-000000-000000-000000-000000-000000,930-708900-00000-00000-0000-0000-000-000-000-000-000-000,WEST VANCOUVER ISLAND,PKE-2,PKE,Current,39644,WVI,WVI,WVI+WVI
295,MEGIN RIVER,MEGIN RIVER,1341,49.43683073,-126.0849837,Stream,930-410014-000000-000000-000000-000000-000000-000000-000000-000000-000000-000000-000000-000000-000000-000000-000000-000000-000000-000000-000000,930-413500-00000-00000-0000-0000-000-000-000-000-000-000,WEST VANCOUVER ISLAND,PKE-2,PKE,Current,41174,WVI,WVI,WVI+WVI
296,MOOYAH RIVER,MOOYAH RIVER,1352,49.62965569,-126.4470716,Stream,930-488088-000000-000000-000000-000000-000000-000000-000000-000000-000000-000000-000000-000000-000000-000000-000000-000000-000000-000000-000000,930-491500-00000-00000-0000-0000-000-000-000-000-000-000,WEST VANCOUVER ISLAND,PKE-2,PKE,Current,41284,WVI,WVI,WVI+WVI
297,MOYEHA RIVER,MOYEHA RIVER,1335,49.41797231,-125.9124379,Stream,930-388774-000000-000000-000000-000000-000000-000000-000000-000000-000000-000000-000000-000000-000000-000000-000000-000000-000000-000000-000000,930-391800-00000-00000-0000-0000-000-000-000-000-000-000,WEST VANCOUVER ISLAND,PKE-2,PKE,Current,41119,WVI,WVI,WVI+WVI
298,NAHMINT RIVER,NAHMINT RIVER,1270,49.06233209,-124.8844262,Stream,930-152772-000000-000000-000000-000000-000000-000000-000000-000000-000000-000000-000000-000000-000000-000000-000000-000000-000000-000000-000000,930-150800-00000-00000-0000-0000-000-000-000-000-000-000,WEST VANCOUVER ISLAND,PKE-2,PKE,Current,40614,WVI,WVI,WVI+WVI
299,NARROWGUT CREEK,NARROWGUT CREEK,1409,49.99654491,-127.1230943,Stream,930-646221-000000-000000-000000-000000-000000-000000-000000-000000-000000-000000-000000-000000-000000-000000-000000-000000-000000-000000-000000,930-648400-00000-00000-0000-0000-000-000-000-000-000-000,WEST VANCOUVER ISLAND,PKE-2,PKE,Current,41829,WVI,WVI,WVI+WVI
300,NASPARTI RIVER,,1430,50.19204732,-127.6082663,Stream,930-746556-000000-000000-000000-000000-000000-000000-000000-000000-000000-000000-000000-000000-000000-000000-000000-000000-000000-000000-000000,930-747000-00000-00000-0000-0000-000-000-000-000-000-000,WEST VANCOUVER ISLAND,PKE-2,PKE,Current,39704,WVI,WVI,WVI+WVI
301,NITINAT RIVER,NITINAT RIVER,1242,48.67076001,-124.851885,Stream,930-073434-000000-000000-000000-000000-000000-000000-000000-000000-000000-000000-000000-000000-000000-000000-000000-000000-000000-000000-000000,930-071700-00000-00000-0000-0000-000-000-000-000-000-000,WEST VANCOUVER ISLAND,PKE-2,PKE,Current,40359,WVI,WVI,WVI+WVI
302,OUOUKINSH RIVER,OUOUKINSH RIVER,1427,50.1871283,-127.4340013,Stream,930-729741-000000-000000-000000-000000-000000-000000-000000-000000-000000-000000-000000-000000-000000-000000-000000-000000-000000-000000-000000,930-730300-00000-00000-0000-0000-000-000-000-000-000-000,WEST VANCOUVER ISLAND,PKE-2,PKE,Current,39674,WVI,WVI,WVI+WVI
303,OWOSSITSA CREEK,OWOSSITSA CREEK,1388,49.82972586,-126.9169139,Stream,935-371895-559404-000000-000000-000000-000000-000000-000000-000000-000000-000000-000000-000000-000000-000000-000000-000000-000000-000000-000000,935-483000-57000-00000-0000-0000-000-000-000-000-000-000,WEST VANCOUVER ISLAND,PKE-2,PKE,Current,41619,WVI,WVI,WVI+WVI
304,PARK RIVER,PARK RIVER,1402,49.8863339,-126.9887789,Stream,930-613579-000000-000000-000000-000000-000000-000000-000000-000000-000000-000000-000000-000000-000000-000000-000000-000000-000000-000000-000000,930-615900-00000-00000-0000-0000-000-000-000-000-000-000,WEST VANCOUVER ISLAND,PKE-2,PKE,Current,41759,WVI,WVI,WVI+WVI
305,POWER RIVER,POWER RIVER,1428,50.17997736,-127.4797426,Stream,930-731806-000000-000000-000000-000000-000000-000000-000000-000000-000000-000000-000000-000000-000000-000000-000000-000000-000000-000000-000000,930-732300-00000-00000-0000-0000-000-000-000-000-000-000,WEST VANCOUVER ISLAND,PKE-2,PKE,Current,39684,WVI,WVI,WVI+WVI
306,SAN JUAN RIVER,SAN JUAN RIVER,1231,48.55997814,-124.3987804,Stream,930-055749-000000-000000-000000-000000-000000-000000-000000-000000-000000-000000-000000-000000-000000-000000-000000-000000-000000-000000-000000,930-053800-00000-00000-0000-0000-000-000-000-000-000-000,WEST VANCOUVER ISLAND,PKE-2,PKE,Current,40249,WVI,WVI,WVI+WVI
307,SARITA RIVER,SARITA RIVER,1252,48.89706946,-125.0169178,Stream,930-112460-000000-000000-000000-000000-000000-000000-000000-000000-000000-000000-000000-000000-000000-000000-000000-000000-000000-000000-000000,930-110800-00000-00000-0000-0000-000-000-000-000-000-000,WEST VANCOUVER ISLAND,PKE-2,PKE,Current,40454,WVI,WVI,WVI+WVI
